{
	"type": "FeatureCollection",
	"features": [{
		"type": "Feature",
		"properties": {
			"altitude": "",
			"geometry": "Point",
			"campusId": "SPT",
			"title": "Shepparton Administration Centre",
			"locTypeId": 1,
			"locType": "building",
			"version": 10530,
			"bldgId": 694,
			"description": "",
			"addr1": "19-21 Nixon St, Shepparton",
			"addr2": "",
			"locationId": 624
		},
		"geometry": {
			"type": "Point",
			"coordinates": [145.399106, -36.376461]
		}
	}, {
		"type": "Feature",
		"properties": {
			"altitude": "",
			"geometry": "Point",
			"campusId": "SPT",
			"title": 688,
			"locTypeId": 1,
			"locType": "building",
			"version": 10529,
			"bldgId": 688,
			"description": "",
			"addr1": "42 Kirkpatrick Avenue",
			"addr2": "",
			"locationId": 623
		},
		"geometry": {
			"type": "Point",
			"coordinates": [145.4052, -36.3658]
		}
	}, {
		"type": "Feature",
		"properties": {
			"altitude": "",
			"geometry": "Point",
			"campusId": "SPT",
			"title": "Unit 6, 49 Graham Street, Shepparton",
			"locTypeId": 1,
			"locType": "building",
			"version": 10438,
			"bldgId": 6966,
			"description": "",
			"addr1": "Graham Street, Shepparton",
			"addr2": "",
			"locationId": 193
		},
		"geometry": {
			"type": "Point",
			"coordinates": [145.405891, -36.361833]
		}
	}, {
		"type": "Feature",
		"properties": {
			"altitude": "",
			"geometry": "Point",
			"campusId": "SPT",
			"title": "Unit 5, 49 Graham Street, Shepparton",
			"locTypeId": 1,
			"locType": "building",
			"version": 10437,
			"bldgId": 6965,
			"description": "",
			"addr1": "Graham Street, Shepparton",
			"addr2": "",
			"locationId": 192
		},
		"geometry": {
			"type": "Point",
			"coordinates": [145.405854, -36.361617]
		}
	}, {
		"type": "Feature",
		"properties": {
			"altitude": "",
			"geometry": "Point",
			"campusId": "SPT",
			"title": "Unit 4, 49 Graham Street, Shepparton",
			"locTypeId": 1,
			"locType": "building",
			"version": 10436,
			"bldgId": 6964,
			"description": "",
			"addr1": "Graham Street, Shepparton",
			"addr2": "",
			"locationId": 191
		},
		"geometry": {
			"type": "Point",
			"coordinates": [145.405854, -36.36139]
		}
	}, {
		"type": "Feature",
		"properties": {
			"altitude": "",
			"geometry": "Point",
			"campusId": "SPT",
			"title": "Unit 3, 49 Graham Street, Shepparton",
			"locTypeId": 1,
			"locType": "building",
			"version": 10435,
			"bldgId": 6963,
			"description": "",
			"addr1": "Graham Street, Shepparton",
			"addr2": "",
			"locationId": 190
		},
		"geometry": {
			"type": "Point",
			"coordinates": [145.406326, -36.361281]
		}
	}, {
		"type": "Feature",
		"properties": {
			"altitude": "",
			"geometry": "Point",
			"campusId": "SPT",
			"title": "Unit 2, 49 Graham Street, Shepparton",
			"locTypeId": 1,
			"locType": "building",
			"version": 10434,
			"bldgId": 6962,
			"description": "",
			"addr1": "Graham Street, Shepparton",
			"addr2": "",
			"locationId": 189
		},
		"geometry": {
			"type": "Point",
			"coordinates": [145.406291, -36.361466]
		}
	}, {
		"type": "Feature",
		"properties": {
			"altitude": "",
			"geometry": "Point",
			"campusId": "SPT",
			"title": "Unit 1, 49 Graham Street, Shepparton",
			"locTypeId": 1,
			"locType": "building",
			"version": 10433,
			"bldgId": 6961,
			"description": "",
			"addr1": "Graham Street, Shepparton",
			"addr2": "",
			"locationId": 188
		},
		"geometry": {
			"type": "Point",
			"coordinates": [145.406325, -36.361669]
		}
	}, {
		"type": "Feature",
		"properties": {
			"altitude": "",
			"geometry": "Point",
			"campusId": "SPT",
			"title": "49 Graham St, Shepparton",
			"locTypeId": 1,
			"locType": "building",
			"version": 10432,
			"bldgId": 696,
			"description": "",
			"addr1": "35-49 Graham Street",
			"addr2": "",
			"locationId": 187
		},
		"geometry": {
			"type": "Point",
			"coordinates": [145.406671, -36.361939]
		}
	}, {
		"type": "Feature",
		"properties": {
			"altitude": "",
			"geometry": "Point",
			"campusId": "DOO",
			"title": "Dookie-Stock Rotunda",
			"locTypeId": 1,
			"locType": "building",
			"version": 10431,
			"bldgId": 552,
			"description": "",
			"addr1": "Dookie-Nalinga Road, Dookie College",
			"addr2": "",
			"locationId": 186
		},
		"geometry": {
			"type": "Point",
			"coordinates": [145.709419, -36.384831]
		}
	}, {
		"type": "Feature",
		"properties": {
			"altitude": "",
			"geometry": "Point",
			"campusId": "DOO",
			"title": "Dookie-Conference House",
			"locTypeId": 1,
			"locType": "building",
			"version": 10430,
			"bldgId": 542,
			"description": "",
			"addr1": "Dookie-Nalinga Road, Dookie College",
			"addr2": "",
			"locationId": 185
		},
		"geometry": {
			"type": "Point",
			"coordinates": [145.706834, -36.383741]
		}
	}, {
		"type": "Feature",
		"properties": {
			"altitude": "",
			"geometry": "Point",
			"campusId": "DOO",
			"title": "Dookie-Gavin Gibson Learning Centre",
			"locTypeId": 1,
			"locType": "building",
			"version": 10429,
			"bldgId": 541,
			"description": "",
			"addr1": "Dookie-Nalinga Road, Dookie College",
			"addr2": "",
			"locationId": 184
		},
		"geometry": {
			"type": "Point",
			"coordinates": [145.706501, -36.383644]
		}
	}, {
		"type": "Feature",
		"properties": {
			"altitude": "",
			"geometry": "Point",
			"campusId": "DOO",
			"title": "Dookie-Gilbert Chandler Community Centre",
			"locTypeId": 1,
			"locType": "building",
			"version": 10428,
			"bldgId": 540,
			"description": "",
			"addr1": "Dookie-Nalinga Road, Dookie College",
			"addr2": "",
			"locationId": 183
		},
		"geometry": {
			"type": "Point",
			"coordinates": [145.706836, -36.382842]
		}
	}, {
		"type": "Feature",
		"properties": {
			"altitude": "",
			"geometry": "Point",
			"campusId": "DOO",
			"title": "Dookie-Lecture Theatre A",
			"locTypeId": 1,
			"locType": "building",
			"version": 10427,
			"bldgId": 530,
			"description": "",
			"addr1": "Dookie-Nalinga Road, Dookie College",
			"addr2": "",
			"locationId": 182
		},
		"geometry": {
			"type": "Point",
			"coordinates": [145.705789, -36.38388]
		}
	}, {
		"type": "Feature",
		"properties": {
			"altitude": "",
			"geometry": "Point",
			"campusId": "DOO",
			"title": "Dookie-Lecture Theatre E",
			"locTypeId": 1,
			"locType": "building",
			"version": 10426,
			"bldgId": 529,
			"description": "",
			"addr1": "Dookie-Nalinga Road, Dookie College",
			"addr2": "",
			"locationId": 181
		},
		"geometry": {
			"type": "Point",
			"coordinates": [145.705585, -36.383983]
		}
	}, {
		"type": "Feature",
		"properties": {
			"altitude": "",
			"geometry": "Point",
			"campusId": "DOO",
			"title": "Dookie-Lecture Theatre D",
			"locTypeId": 1,
			"locType": "building",
			"version": 10425,
			"bldgId": 528,
			"description": "",
			"addr1": "Dookie-Nalinga Road, Dookie College",
			"addr2": "",
			"locationId": 180
		},
		"geometry": {
			"type": "Point",
			"coordinates": [145.705755, -36.384154]
		}
	}, {
		"type": "Feature",
		"properties": {
			"altitude": "",
			"geometry": "Point",
			"campusId": "DOO",
			"title": "Dookie-Building 527",
			"locTypeId": 1,
			"locType": "building",
			"version": 10424,
			"bldgId": 527,
			"description": "",
			"addr1": "Dookie-Nalinga Road, Dookie College",
			"addr2": "",
			"locationId": 179
		},
		"geometry": {
			"type": "Point",
			"coordinates": [145.705736, -36.384466]
		}
	}, {
		"type": "Feature",
		"properties": {
			"altitude": "",
			"geometry": "Point",
			"campusId": "DOO",
			"title": "Dookie-Tennis Courts",
			"locTypeId": 1,
			"locType": "building",
			"version": 10423,
			"bldgId": 525,
			"description": "",
			"addr1": "Dookie-Nalinga Road, Dookie College",
			"addr2": "",
			"locationId": 178
		},
		"geometry": {
			"type": "Point",
			"coordinates": [145.705032, -36.384322]
		}
	}, {
		"type": "Feature",
		"properties": {
			"altitude": "",
			"geometry": "Point",
			"campusId": "DOO",
			"title": "Dookie-Shared Teaching Spaces",
			"locTypeId": 1,
			"locType": "building",
			"version": 10422,
			"bldgId": 519,
			"description": "",
			"addr1": "Dookie-Nalinga Road, Dookie College",
			"addr2": "",
			"locationId": 177
		},
		"geometry": {
			"type": "Point",
			"coordinates": [145.705842, -36.383545]
		}
	}, {
		"type": "Feature",
		"properties": {
			"altitude": "",
			"geometry": "Point",
			"campusId": "DOO",
			"title": "Dookie-Science Laboratory",
			"locTypeId": 1,
			"locType": "building",
			"version": 10421,
			"bldgId": 510,
			"description": "",
			"addr1": "Dookie-Nalinga Road, Dookie College",
			"addr2": "",
			"locationId": 176
		},
		"geometry": {
			"type": "Point",
			"coordinates": [145.705211, -36.382685]
		}
	}, {
		"type": "Feature",
		"properties": {
			"altitude": "",
			"geometry": "Point",
			"campusId": "DOO",
			"title": "Dookie-Residential Support",
			"locTypeId": 1,
			"locType": "building",
			"version": 10420,
			"bldgId": 508,
			"description": "",
			"addr1": "Dookie-Nalinga Road, Dookie College",
			"addr2": "",
			"locationId": 175
		},
		"geometry": {
			"type": "Point",
			"coordinates": [145.705863, -36.382829]
		}
	}, {
		"type": "Feature",
		"properties": {
			"altitude": "",
			"geometry": "Point",
			"campusId": "DOO",
			"title": "Dookie-Swinburne Hall",
			"locTypeId": 1,
			"locType": "building",
			"version": 10419,
			"bldgId": 507,
			"description": "",
			"addr1": "Dookie-Nalinga Road, Dookie College",
			"addr2": "",
			"locationId": 174
		},
		"geometry": {
			"type": "Point",
			"coordinates": [145.706091, -36.382761]
		}
	}, {
		"type": "Feature",
		"properties": {
			"altitude": "",
			"geometry": "Point",
			"campusId": "DOO",
			"title": "Dookie-Patrick Ryan Conference Centre",
			"locTypeId": 1,
			"locType": "building",
			"version": 10418,
			"bldgId": 506,
			"description": "",
			"addr1": "Dookie-Nalinga Road, Dookie College",
			"addr2": "",
			"locationId": 173
		},
		"geometry": {
			"type": "Point",
			"coordinates": [145.705657, -36.383159]
		}
	}, {
		"type": "Feature",
		"properties": {
			"altitude": "",
			"geometry": "Point",
			"campusId": "DOO",
			"title": "Dookie-Hugh Pye Academic Centre",
			"locTypeId": 1,
			"locType": "building",
			"version": 10417,
			"bldgId": 505,
			"description": "",
			"addr1": "Dookie-Nalinga Road, Dookie College",
			"addr2": "",
			"locationId": 172
		},
		"geometry": {
			"type": "Point",
			"coordinates": [145.705947, -36.383173]
		}
	}, {
		"type": "Feature",
		"properties": {
			"altitude": "",
			"geometry": "Point",
			"campusId": "BUR",
			"title": "Burnley-Machine Shed",
			"locTypeId": 1,
			"locType": "building",
			"version": 10511,
			"bldgId": 917,
			"description": "",
			"addr1": "500 Yarra Bvld, Richmond",
			"addr2": "",
			"locationId": 265
		},
		"geometry": {
			"type": "Point",
			"coordinates": [145.023687, -37.829218]
		}
	}, {
		"type": "Feature",
		"properties": {
			"altitude": "",
			"geometry": "Point",
			"campusId": "BUR",
			"title": "Bur-Student Recreation Ct",
			"locTypeId": 1,
			"locType": "building",
			"version": 10510,
			"bldgId": 916,
			"description": "",
			"addr1": "500 Yarra Bvld, Richmond",
			"addr2": "",
			"locationId": 264
		},
		"geometry": {
			"type": "Point",
			"coordinates": [145.02308, -37.828863]
		}
	}, {
		"type": "Feature",
		"properties": {
			"altitude": "",
			"geometry": "Point",
			"campusId": "BUR",
			"title": "Bur-Carpenters Workshop",
			"locTypeId": 1,
			"locType": "building",
			"version": 10509,
			"bldgId": 915,
			"description": "",
			"addr1": "500 Yarra Bvld, Richmond",
			"addr2": "",
			"locationId": 263
		},
		"geometry": {
			"type": "Point",
			"coordinates": [145.023514, -37.828985]
		}
	}, {
		"type": "Feature",
		"properties": {
			"altitude": "",
			"geometry": "Point",
			"campusId": "BUR",
			"title": "Burnley-Library",
			"locTypeId": 1,
			"locType": "building",
			"version": 10508,
			"bldgId": 914,
			"description": "",
			"addr1": "500 Yarra Bvld, Richmond",
			"addr2": "",
			"locationId": 262
		},
		"geometry": {
			"type": "Point",
			"coordinates": [145.021787, -37.828218]
		}
	}, {
		"type": "Feature",
		"properties": {
			"altitude": "",
			"geometry": "Point",
			"campusId": "BUR",
			"title": "Bur-Seminar & Training Rm",
			"locTypeId": 1,
			"locType": "building",
			"version": 10507,
			"bldgId": 912,
			"description": "",
			"addr1": "500 Yarra Bvld, Richmond",
			"addr2": "",
			"locationId": 261
		},
		"geometry": {
			"type": "Point",
			"coordinates": [145.024007, -37.829808]
		}
	}, {
		"type": "Feature",
		"properties": {
			"altitude": "",
			"geometry": "Point",
			"campusId": "BUR",
			"title": "Burnley-Centenary Centre",
			"locTypeId": 1,
			"locType": "building",
			"version": 10506,
			"bldgId": 911,
			"description": "",
			"addr1": "500 Yarra Bvld, Richmond",
			"addr2": "",
			"locationId": 260
		},
		"geometry": {
			"type": "Point",
			"coordinates": [145.0221, -37.828584]
		}
	}, {
		"type": "Feature",
		"properties": {
			"altitude": "",
			"geometry": "Point",
			"campusId": "BUR",
			"title": "Caretaker's Residence",
			"locTypeId": 1,
			"locType": "building",
			"version": 10505,
			"bldgId": 909,
			"description": "",
			"addr1": "500 Yarra Bvld, Richmond",
			"addr2": "",
			"locationId": 259
		},
		"geometry": {
			"type": "Point",
			"coordinates": [145.020475, -37.828953]
		}
	}, {
		"type": "Feature",
		"properties": {
			"altitude": "",
			"geometry": "Point",
			"campusId": "BUR",
			"title": "Student Amentities",
			"locTypeId": 1,
			"locType": "building",
			"version": 10504,
			"bldgId": 908,
			"description": "",
			"addr1": "500 Yarra Bvld, Richmond",
			"addr2": "",
			"locationId": 258
		},
		"geometry": {
			"type": "Point",
			"coordinates": [145.020989, -37.829042]
		}
	}, {
		"type": "Feature",
		"properties": {
			"altitude": "",
			"geometry": "Point",
			"campusId": "BUR",
			"title": "Landscape Facility",
			"locTypeId": 1,
			"locType": "building",
			"version": 10503,
			"bldgId": 907,
			"description": "",
			"addr1": "500 Yarra Bvld, Richmond",
			"addr2": "",
			"locationId": 257
		},
		"geometry": {
			"type": "Point",
			"coordinates": [145.023379, -37.829452]
		}
	}, {
		"type": "Feature",
		"properties": {
			"altitude": "",
			"geometry": "Point",
			"campusId": "BUR",
			"title": "Bur-Plant Science Lab Ext",
			"locTypeId": 1,
			"locType": "building",
			"version": 10502,
			"bldgId": 906,
			"description": "",
			"addr1": "500 Yarra Bvld, Richmond",
			"addr2": "",
			"locationId": 256
		},
		"geometry": {
			"type": "Point",
			"coordinates": [145.020667, -37.829267]
		}
	}, {
		"type": "Feature",
		"properties": {
			"altitude": "",
			"geometry": "Point",
			"campusId": "BUR",
			"title": "Burnley-Plant Science Lab",
			"locTypeId": 1,
			"locType": "building",
			"version": 10501,
			"bldgId": 905,
			"description": "",
			"addr1": "500 Yarra Bvld, Richmond",
			"addr2": "",
			"locationId": 255
		},
		"geometry": {
			"type": "Point",
			"coordinates": [145.020957, -37.82945]
		}
	}, {
		"type": "Feature",
		"properties": {
			"altitude": "",
			"geometry": "Point",
			"campusId": "BUR",
			"title": "Burnley-Engineering",
			"locTypeId": 1,
			"locType": "building",
			"version": 10500,
			"bldgId": 903,
			"description": "",
			"addr1": "500 Yarra Bvld, Richmond",
			"addr2": "",
			"locationId": 254
		},
		"geometry": {
			"type": "Point",
			"coordinates": [145.022532, -37.828551]
		}
	}, {
		"type": "Feature",
		"properties": {
			"altitude": "",
			"geometry": "Point",
			"campusId": "BUR",
			"title": "Burnley-Nursery",
			"locTypeId": 1,
			"locType": "building",
			"version": 10499,
			"bldgId": 902,
			"description": "",
			"addr1": "500 Yarra Bvld, Richmond",
			"addr2": "",
			"locationId": 253
		},
		"geometry": {
			"type": "Point",
			"coordinates": [145.021017, -37.828633]
		}
	}, {
		"type": "Feature",
		"properties": {
			"altitude": "",
			"geometry": "Point",
			"campusId": "BUR",
			"title": "Burnley-Main Building",
			"locTypeId": 1,
			"locType": "building",
			"version": 10498,
			"bldgId": 901,
			"description": "",
			"addr1": "500 Yarra Bvld, Richmond",
			"addr2": "",
			"locationId": 252
		},
		"geometry": {
			"type": "Point",
			"coordinates": [145.021391, -37.82917]
		}
	}, {
		"type": "Feature",
		"properties": {
			"altitude": "",
			"geometry": "Point",
			"campusId": "BUR",
			"title": "Quadrangle Building 7",
			"locTypeId": 1,
			"locType": "building",
			"version": 10497,
			"bldgId": 899,
			"description": "",
			"addr1": "500 Yarra Bvld, Richmond",
			"addr2": "",
			"locationId": 251
		},
		"geometry": {
			"type": "Point",
			"coordinates": [145.022103, -37.828272]
		}
	}, {
		"type": "Feature",
		"properties": {
			"altitude": "",
			"geometry": "Point",
			"campusId": "BUR",
			"title": "Quadrangle Building 6",
			"locTypeId": 1,
			"locType": "building",
			"version": 10495,
			"bldgId": 898,
			"description": "",
			"addr1": "500 Yarra Bvld, Richmond",
			"addr2": "",
			"locationId": 250
		},
		"geometry": {
			"type": "Point",
			"coordinates": [145.022177, -37.828177]
		}
	}, {
		"type": "Feature",
		"properties": {
			"altitude": "",
			"geometry": "Point",
			"campusId": "BUR",
			"title": "Quadrangle Building 5",
			"locTypeId": 1,
			"locType": "building",
			"version": 10494,
			"bldgId": 897,
			"description": "",
			"addr1": "500 Yarra Bvld, Richmond",
			"addr2": "",
			"locationId": 249
		},
		"geometry": {
			"type": "Point",
			"coordinates": [145.022164, -37.82807]
		}
	}, {
		"type": "Feature",
		"properties": {
			"altitude": "",
			"geometry": "Point",
			"campusId": "BUR",
			"title": "Quadrangle Building 4",
			"locTypeId": 1,
			"locType": "building",
			"version": 10493,
			"bldgId": 896,
			"description": "",
			"addr1": "500 Yarra Bvld, Richmond",
			"addr2": "",
			"locationId": 248
		},
		"geometry": {
			"type": "Point",
			"coordinates": [145.022025, -37.827965]
		}
	}, {
		"type": "Feature",
		"properties": {
			"altitude": "",
			"geometry": "Point",
			"campusId": "BUR",
			"title": "Quadrangle Building 3",
			"locTypeId": 1,
			"locType": "building",
			"version": 10492,
			"bldgId": 895,
			"description": "",
			"addr1": "500 Yarra Bvld, Richmond",
			"addr2": "",
			"locationId": 247
		},
		"geometry": {
			"type": "Point",
			"coordinates": [145.021861, -37.827957]
		}
	}, {
		"type": "Feature",
		"properties": {
			"altitude": "",
			"geometry": "Point",
			"campusId": "BUR",
			"title": "Quadrangle Building 2",
			"locTypeId": 1,
			"locType": "building",
			"version": 10491,
			"bldgId": 894,
			"description": "",
			"addr1": "500 Yarra Bvld, Richmond",
			"addr2": "",
			"locationId": 246
		},
		"geometry": {
			"type": "Point",
			"coordinates": [145.021705, -37.827943]
		}
	}, {
		"type": "Feature",
		"properties": {
			"altitude": "",
			"geometry": "Point",
			"campusId": "BUR",
			"title": "Quadrangle Building 1",
			"locTypeId": 1,
			"locType": "building",
			"version": 10490,
			"bldgId": 893,
			"description": "",
			"addr1": "500 Yarra Bvld, Richmond",
			"addr2": "",
			"locationId": 245
		},
		"geometry": {
			"type": "Point",
			"coordinates": [145.021563, -37.828036]
		}
	}, {
		"type": "Feature",
		"properties": {
			"altitude": "",
			"geometry": "Point",
			"campusId": "PAR",
			"title": "11 Barry Street",
			"locTypeId": 1,
			"locType": "building",
			"version": 62023,
			"bldgId": 266,
			"description": "University Services",
			"addr1": "11 Barry Street",
			"addr2": "",
			"locationId": 120
		},
		"geometry": {
			"type": "Point",
			"coordinates": [144.959704, -37.803763]
		}
	}, {
		"type": "Feature",
		"properties": {
			"altitude": "",
			"geometry": "Point",
			"campusId": "PAR",
			"title": "Visitor and Merchandise Centre",
			"locTypeId": 1,
			"locType": "building",
			"version": 46001,
			"bldgId": 188,
			"description": "",
			"addr1": "",
			"addr2": "",
			"locationId": 660
		},
		"geometry": {
			"type": "Point",
			"coordinates": [144.9605, -37.799447]
		}
	}, {
		"type": "Feature",
		"properties": {
			"altitude": "",
			"geometry": "Point",
			"campusId": "PAR",
			"title": "Nona Lee Sports Centre",
			"locTypeId": 1,
			"locType": "building",
			"version": 30002,
			"bldgId": 103,
			"description": "",
			"addr1": "University Of Melbourne",
			"addr2": "",
			"locationId": 24
		},
		"geometry": {
			"type": "Point",
			"coordinates": [144.962302, -37.795917]
		}
	}, {
		"type": "Feature",
		"properties": {
			"altitude": "",
			"geometry": "Point",
			"campusId": "PAR",
			"title": "Peter Hall Building",
			"locTypeId": 1,
			"locType": "building",
			"version": 30001,
			"bldgId": 160,
			"description": "",
			"addr1": "University Of Melbourne",
			"addr2": "",
			"locationId": 58
		},
		"geometry": {
			"type": "Point",
			"coordinates": [144.963642, -37.798088]
		}
	}, {
		"type": "Feature",
		"properties": {
			"altitude": "",
			"geometry": "Point",
			"campusId": "PAR",
			"title": "Royal Dental Hospital of Melbourne",
			"locTypeId": 1,
			"locType": "building",
			"version": 10531,
			"bldgId": 702,
			"description": "",
			"addr1": "University of Melbourne, 3010",
			"addr2": "",
			"locationId": 625
		},
		"geometry": {
			"type": "Point",
			"coordinates": [144.96461, -37.799391]
		}
	}, {
		"type": "Feature",
		"properties": {
			"altitude": "",
			"geometry": "Point",
			"campusId": "PAR",
			"title": "Centre for Medical Research",
			"locTypeId": 1,
			"locType": "building",
			"version": 10528,
			"bldgId": 608,
			"description": "",
			"addr1": "Royal Melbourne Hospital",
			"addr2": "",
			"locationId": 622
		},
		"geometry": {
			"type": "Point",
			"coordinates": [144.9570411, -37.7988497]
		}
	}, {
		"type": "Feature",
		"properties": {
			"altitude": "",
			"geometry": "Point",
			"campusId": "PAR",
			"title": "Clinical School",
			"locTypeId": 1,
			"locType": "building",
			"version": 10527,
			"bldgId": 604,
			"description": "",
			"addr1": "University of Melbourne, 3010",
			"addr2": "",
			"locationId": 621
		},
		"geometry": {
			"type": "Point",
			"coordinates": [144.9562, -37.7985]
		}
	}, {
		"type": "Feature",
		"properties": {
			"altitude": "",
			"geometry": "Point",
			"campusId": "PAR",
			"title": "Clinical Science",
			"locTypeId": 1,
			"locType": "building",
			"version": 10526,
			"bldgId": 601,
			"description": "",
			"addr1": "Royal Melbourne Hospital",
			"addr2": "",
			"locationId": 620
		},
		"geometry": {
			"type": "Point",
			"coordinates": [144.9571041, -37.79852903]
		}
	}, {
		"type": "Feature",
		"properties": {
			"altitude": "",
			"geometry": "Point",
			"campusId": "PAR",
			"title": "MUS Sports Pavillion",
			"locTypeId": 1,
			"locType": "building",
			"version": 10525,
			"bldgId": 498,
			"description": "",
			"addr1": "University of Melbourne, 3010",
			"addr2": "",
			"locationId": 619
		},
		"geometry": {
			"type": "Point",
			"coordinates": [144.9616, -37.7937]
		}
	}, {
		"type": "Feature",
		"properties": {
			"altitude": "",
			"geometry": "Point",
			"campusId": "PAR",
			"title": "International House",
			"locTypeId": 1,
			"locType": "building",
			"version": 10524,
			"bldgId": 470,
			"description": "",
			"addr1": "Royal Parade",
			"addr2": "",
			"locationId": 618
		},
		"geometry": {
			"type": "Point",
			"coordinates": [144.9583922, -37.78877962]
		}
	}, {
		"type": "Feature",
		"properties": {
			"altitude": "",
			"geometry": "Point",
			"campusId": "PAR",
			"title": 390,
			"locTypeId": 1,
			"locType": "building",
			"version": 10523,
			"bldgId": 390,
			"description": "",
			"addr1": "141 Barry Street, Carlton",
			"addr2": "",
			"locationId": 617
		},
		"geometry": {
			"type": "Point",
			"coordinates": [144.9595, -37.8006]
		}
	}, {
		"type": "Feature",
		"properties": {
			"altitude": "",
			"geometry": "Point",
			"campusId": "PAR",
			"title": 325,
			"locTypeId": 1,
			"locType": "building",
			"version": 10522,
			"bldgId": 325,
			"description": "",
			"addr1": "374 Cardigan Street",
			"addr2": "",
			"locationId": 616
		},
		"geometry": {
			"type": "Point",
			"coordinates": [144.966735, -37.79553]
		}
	}, {
		"type": "Feature",
		"properties": {
			"altitude": "",
			"geometry": "Point",
			"campusId": "PAR",
			"title": "IQ Apartments",
			"locTypeId": 1,
			"locType": "building",
			"version": 10521,
			"bldgId": 275,
			"description": "",
			"addr1": "223 Berkeley Street, Carlton",
			"addr2": "",
			"locationId": 615
		},
		"geometry": {
			"type": "Point",
			"coordinates": [144.9585, -37.8003]
		}
	}, {
		"type": "Feature",
		"properties": {
			"altitude": "",
			"geometry": "Point",
			"campusId": "PAR",
			"title": 253,
			"locTypeId": 1,
			"locType": "building",
			"version": 10520,
			"bldgId": 253,
			"description": "",
			"addr1": "Pelham Street",
			"addr2": "",
			"locationId": 614
		},
		"geometry": {
			"type": "Point",
			"coordinates": [144.9612, -37.802]
		}
	}, {
		"type": "Feature",
		"properties": {
			"altitude": "",
			"geometry": "Point",
			"campusId": "PAR",
			"title": "Prayer Centre",
			"locTypeId": 1,
			"locType": "building",
			"version": 10519,
			"bldgId": 252,
			"description": "",
			"addr1": "156-162 Pelham Street, Carlton",
			"addr2": "",
			"locationId": 613
		},
		"geometry": {
			"type": "Point",
			"coordinates": [144.9613, -37.8021]
		}
	}, {
		"type": "Feature",
		"properties": {
			"altitude": "",
			"geometry": "Point",
			"campusId": "PAR",
			"title": 249,
			"locTypeId": 1,
			"locType": "building",
			"version": 10518,
			"bldgId": 249,
			"description": "",
			"addr1": "183 Bouverie Street",
			"addr2": "",
			"locationId": 612
		},
		"geometry": {
			"type": "Point",
			"coordinates": [144.9619, -37.8021]
		}
	}, {
		"type": "Feature",
		"properties": {
			"altitude": "",
			"geometry": "Point",
			"campusId": "PAR",
			"title": "Peter Doherty Institute",
			"locTypeId": 1,
			"locType": "building",
			"version": 10517,
			"bldgId": 248,
			"description": "",
			"addr1": "Grattan Street",
			"addr2": "",
			"locationId": 611
		},
		"geometry": {
			"type": "Point",
			"coordinates": [144.9582, -37.8]
		}
	}, {
		"type": "Feature",
		"properties": {
			"altitude": "",
			"geometry": "Point",
			"campusId": "PAR",
			"title": "Underground car park",
			"locTypeId": 1,
			"locType": "building",
			"version": 10516,
			"bldgId": 195,
			"description": "South Lawn",
			"addr1": "Entry from Wilson Avenue (restricted)",
			"addr2": "",
			"locationId": 610
		},
		"geometry": {
			"type": "Point",
			"coordinates": [144.960287, -37.798637]
		}
	}, {
		"type": "Feature",
		"properties": {
			"altitude": "",
			"geometry": "Point",
			"campusId": "PAR",
			"title": "Physics South",
			"locTypeId": 1,
			"locType": "building",
			"version": 10515,
			"bldgId": "192s",
			"description": "",
			"addr1": "Spencer Road",
			"addr2": "",
			"locationId": 609
		},
		"geometry": {
			"type": "Point",
			"coordinates": [144.9637, -37.7971]
		}
	}, {
		"type": "Feature",
		"properties": {
			"altitude": "",
			"geometry": "Point",
			"campusId": "PAR",
			"title": "Melbourne Business School",
			"locTypeId": 1,
			"locType": "building",
			"version": 10514,
			"bldgId": 202,
			"description": "",
			"addr1": "200 Leicester Street",
			"addr2": "",
			"locationId": 607
		},
		"geometry": {
			"type": "Point",
			"coordinates": [144.96114, -37.801557]
		}
	}, {
		"type": "Feature",
		"properties": {
			"altitude": "",
			"geometry": "Point",
			"campusId": "PAR",
			"title": "Melbourne School of Design",
			"locTypeId": 1,
			"locType": "building",
			"version": 10513,
			"bldgId": 133,
			"description": "",
			"addr1": "University of Melbourne",
			"addr2": "",
			"locationId": 520
		},
		"geometry": {
			"type": "Point",
			"coordinates": [144.9626315, -37.797212]
		}
	}, {
		"type": "Feature",
		"properties": {
			"altitude": "",
			"geometry": "Point",
			"campusId": "PAR",
			"title": "Royal Exhibition Building",
			"locTypeId": 1,
			"locType": "building",
			"version": 10512,
			"bldgId": "REB",
			"description": "",
			"addr1": "9 Nicholson St",
			"addr2": "",
			"locationId": 451
		},
		"geometry": {
			"type": "Point",
			"coordinates": [144.971499, -37.804715]
		}
	}, {
		"type": "Feature",
		"properties": {
			"altitude": "",
			"geometry": "Point",
			"campusId": "PAR",
			"title": "Cesar Building",
			"locTypeId": 1,
			"locType": "building",
			"version": 10416,
			"bldgId": 478,
			"description": "",
			"addr1": "Western Precinct",
			"addr2": "",
			"locationId": 171
		},
		"geometry": {
			"type": "Point",
			"coordinates": [144.954476, -37.797889]
		}
	}, {
		"type": "Feature",
		"properties": {
			"altitude": "",
			"geometry": "Point",
			"campusId": "PAR",
			"title": "Bio 21 Incubator",
			"locTypeId": 1,
			"locType": "building",
			"version": 10399,
			"bldgId": 404,
			"description": "",
			"addr1": "30 Flemington Road",
			"addr2": "",
			"locationId": 154
		},
		"geometry": {
			"type": "Point",
			"coordinates": [144.95425, -37.797548]
		}
	}, {
		"type": "Feature",
		"properties": {
			"altitude": "",
			"geometry": "Point",
			"campusId": "PAR",
			"title": "Vri Building",
			"locTypeId": 1,
			"locType": "building",
			"version": 10398,
			"bldgId": 403,
			"description": "",
			"addr1": "Flemington Road",
			"addr2": "",
			"locationId": 153
		},
		"geometry": {
			"type": "Point",
			"coordinates": [144.95403, -37.79708]
		}
	}, {
		"type": "Feature",
		"properties": {
			"altitude": "",
			"geometry": "Point",
			"campusId": "PAR",
			"title": "Vet Post Grad Parkville",
			"locTypeId": 1,
			"locType": "building",
			"version": 10397,
			"bldgId": 402,
			"description": "",
			"addr1": "Flemington Road",
			"addr2": "",
			"locationId": 152
		},
		"geometry": {
			"type": "Point",
			"coordinates": [144.953352, -37.797446]
		}
	}, {
		"type": "Feature",
		"properties": {
			"altitude": "",
			"geometry": "Point",
			"campusId": "PAR",
			"title": "Vet Preclin Ctr Parkville",
			"locTypeId": 1,
			"locType": "building",
			"version": 10396,
			"bldgId": 400,
			"description": "",
			"addr1": "Flemington Road",
			"addr2": "",
			"locationId": 151
		},
		"geometry": {
			"type": "Point",
			"coordinates": [144.953296, -37.797752]
		}
	}, {
		"type": "Feature",
		"properties": {
			"altitude": "",
			"geometry": "Point",
			"campusId": "PAR",
			"title": "139 Barry Street",
			"locTypeId": 1,
			"locType": "building",
			"version": 10395,
			"bldgId": 394,
			"description": "",
			"addr1": "139 Barry Street",
			"addr2": "",
			"locationId": 150
		},
		"geometry": {
			"type": "Point",
			"coordinates": [144.95944, -37.800734]
		}
	}, {
		"type": "Feature",
		"properties": {
			"altitude": "",
			"geometry": "Point",
			"campusId": "PAR",
			"title": "147-151 Barry Street",
			"locTypeId": 1,
			"locType": "building",
			"version": 10394,
			"bldgId": 388,
			"description": "",
			"addr1": "147-151 Barry Street",
			"addr2": "",
			"locationId": 149
		},
		"geometry": {
			"type": "Point",
			"coordinates": [144.95946, -37.800618]
		}
	}, {
		"type": "Feature",
		"properties": {
			"altitude": "",
			"geometry": "Point",
			"campusId": "PAR",
			"title": "138-146 Cardigan Steet",
			"locTypeId": 1,
			"locType": "building",
			"version": 10393,
			"bldgId": 385,
			"description": "",
			"addr1": "138 Cardigan Steet",
			"addr2": "",
			"locationId": 148
		},
		"geometry": {
			"type": "Point",
			"coordinates": [144.965503, -37.801689]
		}
	}, {
		"type": "Feature",
		"properties": {
			"altitude": "",
			"geometry": "Point",
			"campusId": "PAR",
			"title": "158 Bouverie Street",
			"locTypeId": 1,
			"locType": "building",
			"version": 10392,
			"bldgId": 384,
			"description": "",
			"addr1": "158 Bouverie Street",
			"addr2": "",
			"locationId": 147
		},
		"geometry": {
			"type": "Point",
			"coordinates": [144.962726, -37.801048]
		}
	}, {
		"type": "Feature",
		"properties": {
			"altitude": "",
			"geometry": "Point",
			"campusId": "PAR",
			"title": "99 Barry Street",
			"locTypeId": 1,
			"locType": "building",
			"version": 10391,
			"bldgId": 383,
			"description": "",
			"addr1": "99 Barry Street",
			"addr2": "",
			"locationId": 146
		},
		"geometry": {
			"type": "Point",
			"coordinates": [144.959376, -37.801643]
		}
	}, {
		"type": "Feature",
		"properties": {
			"altitude": "",
			"geometry": "Point",
			"campusId": "PAR",
			"title": "207-221 Bouverie Street",
			"locTypeId": 1,
			"locType": "building",
			"version": 10390,
			"bldgId": 379,
			"description": "",
			"addr1": "207-221 Bouverie Street",
			"addr2": "",
			"locationId": 145
		},
		"geometry": {
			"type": "Point",
			"coordinates": [144.961882, -37.801306]
		}
	}, {
		"type": "Feature",
		"properties": {
			"altitude": "",
			"geometry": "Point",
			"campusId": "PAR",
			"title": "103-105 Barry Street",
			"locTypeId": 1,
			"locType": "building",
			"version": 10389,
			"bldgId": 376,
			"description": "",
			"addr1": "103-105 Barry Street",
			"addr2": "",
			"locationId": 144
		},
		"geometry": {
			"type": "Point",
			"coordinates": [144.959394, -37.801566]
		}
	}, {
		"type": "Feature",
		"properties": {
			"altitude": "",
			"geometry": "Point",
			"campusId": "PAR",
			"title": "205-209 Grattan Street",
			"locTypeId": 1,
			"locType": "building",
			"version": 10388,
			"bldgId": 368,
			"description": "",
			"addr1": "205-209 Grattan Street",
			"addr2": "",
			"locationId": 143
		},
		"geometry": {
			"type": "Point",
			"coordinates": [144.961884, -37.800362]
		}
	}, {
		"type": "Feature",
		"properties": {
			"altitude": "",
			"geometry": "Point",
			"campusId": "PAR",
			"title": "153 Barry Street",
			"locTypeId": 1,
			"locType": "building",
			"version": 10387,
			"bldgId": 363,
			"description": "",
			"addr1": "153 Barry Street",
			"addr2": "",
			"locationId": 142
		},
		"geometry": {
			"type": "Point",
			"coordinates": [144.959524, -37.800447]
		}
	}, {
		"type": "Feature",
		"properties": {
			"altitude": "",
			"geometry": "Point",
			"campusId": "PAR",
			"title": "27 Royal Parade",
			"locTypeId": 1,
			"locType": "building",
			"version": 10386,
			"bldgId": 359,
			"description": "",
			"addr1": "27 Royal Parade",
			"addr2": "",
			"locationId": 141
		},
		"geometry": {
			"type": "Point",
			"coordinates": [144.957448, -37.796422]
		}
	}, {
		"type": "Feature",
		"properties": {
			"altitude": "",
			"geometry": "Point",
			"campusId": "PAR",
			"title": "25 Royal Parade",
			"locTypeId": 1,
			"locType": "building",
			"version": 10385,
			"bldgId": 358,
			"description": "",
			"addr1": "25 Royal Parade",
			"addr2": "",
			"locationId": 140
		},
		"geometry": {
			"type": "Point",
			"coordinates": [144.957426, -37.796517]
		}
	}, {
		"type": "Feature",
		"properties": {
			"altitude": "",
			"geometry": "Point",
			"campusId": "PAR",
			"title": "23 Royal Parade",
			"locTypeId": 1,
			"locType": "building",
			"version": 10384,
			"bldgId": 357,
			"description": "",
			"addr1": "23 Royal Parade",
			"addr2": "",
			"locationId": 139
		},
		"geometry": {
			"type": "Point",
			"coordinates": [144.957414, -37.796591]
		}
	}, {
		"type": "Feature",
		"properties": {
			"altitude": "",
			"geometry": "Point",
			"campusId": "PAR",
			"title": "21 Royal Parade",
			"locTypeId": 1,
			"locType": "building",
			"version": 10383,
			"bldgId": 356,
			"description": "",
			"addr1": "21 Royal Parade",
			"addr2": "",
			"locationId": 138
		},
		"geometry": {
			"type": "Point",
			"coordinates": [144.9574, -37.796677]
		}
	}, {
		"type": "Feature",
		"properties": {
			"altitude": "",
			"geometry": "Point",
			"campusId": "PAR",
			"title": "216-220 Leicester Street - Graduate House",
			"locTypeId": 1,
			"locType": "building",
			"version": 10382,
			"bldgId": 354,
			"description": "",
			"addr1": "216-220 Leicester Street",
			"addr2": "",
			"locationId": 137
		},
		"geometry": {
			"type": "Point",
			"coordinates": [144.961331, -37.80059]
		}
	}, {
		"type": "Feature",
		"properties": {
			"altitude": "",
			"geometry": "Point",
			"campusId": "PAR",
			"title": "159 Barry Street",
			"locTypeId": 1,
			"locType": "building",
			"version": 10381,
			"bldgId": 353,
			"description": "",
			"addr1": "159 Barry Street",
			"addr2": "",
			"locationId": 136
		},
		"geometry": {
			"type": "Point",
			"coordinates": [144.959491, -37.800244]
		}
	}, {
		"type": "Feature",
		"properties": {
			"altitude": "",
			"geometry": "Point",
			"campusId": "PAR",
			"title": "157 Barry Street",
			"locTypeId": 1,
			"locType": "building",
			"version": 10380,
			"bldgId": 352,
			"description": "",
			"addr1": "157 Barry Street",
			"addr2": "",
			"locationId": 135
		},
		"geometry": {
			"type": "Point",
			"coordinates": [144.959542, -37.800331]
		}
	}, {
		"type": "Feature",
		"properties": {
			"altitude": "",
			"geometry": "Point",
			"campusId": "PAR",
			"title": "723 Swanston Street",
			"locTypeId": 1,
			"locType": "building",
			"version": 10379,
			"bldgId": 348,
			"description": "",
			"addr1": "723 Swanston Street",
			"addr2": "",
			"locationId": 134
		},
		"geometry": {
			"type": "Point",
			"coordinates": [144.963455, -37.800875]
		}
	}, {
		"type": "Feature",
		"properties": {
			"altitude": "",
			"geometry": "Point",
			"campusId": "PAR",
			"title": "Peter McPhee Centre",
			"locTypeId": 1,
			"locType": "building",
			"version": 10378,
			"bldgId": 344,
			"description": "",
			"addr1": "272-278 Faraday Street",
			"addr2": "",
			"locationId": 133
		},
		"geometry": {
			"type": "Point",
			"coordinates": [144.964898, -37.798161]
		}
	}, {
		"type": "Feature",
		"properties": {
			"altitude": "",
			"geometry": "Point",
			"campusId": "PAR",
			"title": "131-137 Barry Street",
			"locTypeId": 1,
			"locType": "building",
			"version": 10377,
			"bldgId": 337,
			"description": "",
			"addr1": "131-137 Barry Street",
			"addr2": "",
			"locationId": 132
		},
		"geometry": {
			"type": "Point",
			"coordinates": [144.959433, -37.80089]
		}
	}, {
		"type": "Feature",
		"properties": {
			"altitude": "",
			"geometry": "Point",
			"campusId": "PAR",
			"title": "427-429 Cardigan Steet",
			"locTypeId": 1,
			"locType": "building",
			"version": 10376,
			"bldgId": 335,
			"description": "",
			"addr1": "427-429 Cardigan Street",
			"addr2": "",
			"locationId": 131
		},
		"geometry": {
			"type": "Point",
			"coordinates": [144.965788, -37.796048]
		}
	}, {
		"type": "Feature",
		"properties": {
			"altitude": "",
			"geometry": "Point",
			"campusId": "PAR",
			"title": "Eastern Precinct Carpark",
			"locTypeId": 1,
			"locType": "building",
			"version": 10375,
			"bldgId": 333,
			"description": "",
			"addr1": "355/361/363/373/375 Cardigan Street",
			"addr2": "",
			"locationId": 130
		},
		"geometry": {
			"type": "Point",
			"coordinates": [144.965338, -37.797408]
		}
	}, {
		"type": "Feature",
		"properties": {
			"altitude": "",
			"geometry": "Point",
			"campusId": "PAR",
			"title": "101 Barry Street",
			"locTypeId": 1,
			"locType": "building",
			"version": 10374,
			"bldgId": 332,
			"description": "",
			"addr1": "101 Barry Street",
			"addr2": "",
			"locationId": 129
		},
		"geometry": {
			"type": "Point",
			"coordinates": [144.959386, -37.801608]
		}
	}, {
		"type": "Feature",
		"properties": {
			"altitude": "",
			"geometry": "Point",
			"campusId": "PAR",
			"title": "107-109 Barry Street",
			"locTypeId": 1,
			"locType": "building",
			"version": 10373,
			"bldgId": 326,
			"description": "",
			"addr1": "107-109 Barry Street",
			"addr2": "",
			"locationId": 128
		},
		"geometry": {
			"type": "Point",
			"coordinates": [144.959408, -37.801482]
		}
	}, {
		"type": "Feature",
		"properties": {
			"altitude": "",
			"geometry": "Point",
			"campusId": "PAR",
			"title": "95 Barry Street",
			"locTypeId": 1,
			"locType": "building",
			"version": 10372,
			"bldgId": 324,
			"description": "",
			"addr1": "95 Barry Street",
			"addr2": "",
			"locationId": 127
		},
		"geometry": {
			"type": "Point",
			"coordinates": [144.959363, -37.801755]
		}
	}, {
		"type": "Feature",
		"properties": {
			"altitude": "",
			"geometry": "Point",
			"campusId": "PAR",
			"title": "856-858 Swanston Street",
			"locTypeId": 1,
			"locType": "building",
			"version": 10371,
			"bldgId": 308,
			"description": "",
			"addr1": "856-858 Swanston Street",
			"addr2": "",
			"locationId": 126
		},
		"geometry": {
			"type": "Point",
			"coordinates": [144.96515, -37.796266]
		}
	}, {
		"type": "Feature",
		"properties": {
			"altitude": "",
			"geometry": "Point",
			"campusId": "PAR",
			"title": "AJ Cunningham Wing (Old RWH)",
			"locTypeId": 1,
			"locType": "building",
			"version": 10370,
			"bldgId": 290,
			"description": "",
			"addr1": "132 Grattan St",
			"addr2": "",
			"locationId": 125
		},
		"geometry": {
			"type": "Point",
			"coordinates": [144.964706, -37.799954]
		}
	}, {
		"type": "Feature",
		"properties": {
			"altitude": "",
			"geometry": "Point",
			"campusId": "PAR",
			"title": "204 Lygon Street (Uom Sublease), Lvls 4 And 5",
			"locTypeId": 1,
			"locType": "building",
			"version": 10369,
			"bldgId": 281,
			"description": "",
			"addr1": "204 Lygon St, Carlton Level 4 & 5",
			"addr2": "",
			"locationId": 124
		},
		"geometry": {
			"type": "Point",
			"coordinates": [144.967174, -37.802232]
		}
	}, {
		"type": "Feature",
		"properties": {
			"altitude": "",
			"geometry": "Point",
			"campusId": "PAR",
			"title": "100 Leicester Street",
			"locTypeId": 1,
			"locType": "building",
			"version": 10368,
			"bldgId": 278,
			"description": "",
			"addr1": "100 Leicester Street",
			"addr2": "",
			"locationId": 123
		},
		"geometry": {
			"type": "Point",
			"coordinates": [144.960761, -37.803663]
		}
	}, {
		"type": "Feature",
		"properties": {
			"altitude": "",
			"geometry": "Point",
			"campusId": "PAR",
			"title": "201 Grattan Street",
			"locTypeId": 1,
			"locType": "building",
			"version": 10367,
			"bldgId": 274,
			"description": "",
			"addr1": "201 Grattan Street",
			"addr2": "",
			"locationId": 122
		},
		"geometry": {
			"type": "Point",
			"coordinates": [144.962055, -37.800433]
		}
	}, {
		"type": "Feature",
		"properties": {
			"altitude": "",
			"geometry": "Point",
			"campusId": "PAR",
			"title": "170 Bouverie Street",
			"locTypeId": 1,
			"locType": "building",
			"version": 10366,
			"bldgId": 269,
			"description": "",
			"addr1": "170 Bouverie Street",
			"addr2": "",
			"locationId": 121
		},
		"geometry": {
			"type": "Point",
			"coordinates": [144.962756, -37.800751]
		}
	}, {
		"type": "Feature",
		"properties": {
			"altitude": "",
			"geometry": "Point",
			"campusId": "PAR",
			"title": "234 Queensberry Street",
			"locTypeId": 1,
			"locType": "building",
			"version": 10364,
			"bldgId": 263,
			"description": "",
			"addr1": "234 Queensberry Street",
			"addr2": "",
			"locationId": 119
		},
		"geometry": {
			"type": "Point",
			"coordinates": [144.960826, -37.80397]
		}
	}, {
		"type": "Feature",
		"properties": {
			"altitude": "",
			"geometry": "Point",
			"campusId": "PAR",
			"title": "228 Queensberry Street",
			"locTypeId": 1,
			"locType": "building",
			"version": 10363,
			"bldgId": 262,
			"description": "",
			"addr1": "228 Queensberry Street",
			"addr2": "",
			"locationId": 118
		},
		"geometry": {
			"type": "Point",
			"coordinates": [144.961245, -37.804097]
		}
	}, {
		"type": "Feature",
		"properties": {
			"altitude": "",
			"geometry": "Point",
			"campusId": "PAR",
			"title": "Centre For Neural Engineering",
			"locTypeId": 1,
			"locType": "building",
			"version": 10362,
			"bldgId": 261,
			"description": "",
			"addr1": "203 Bouverie Street",
			"addr2": "",
			"locationId": 117
		},
		"geometry": {
			"type": "Point",
			"coordinates": [144.961752, -37.801673]
		}
	}, {
		"type": "Feature",
		"properties": {
			"altitude": "",
			"geometry": "Point",
			"campusId": "PAR",
			"title": "200 Berkeley Street",
			"locTypeId": 1,
			"locType": "building",
			"version": 10361,
			"bldgId": 260,
			"description": "",
			"addr1": "200 Berkeley Street",
			"addr2": "",
			"locationId": 116
		},
		"geometry": {
			"type": "Point",
			"coordinates": [144.958899, -37.801164]
		}
	}, {
		"type": "Feature",
		"properties": {
			"altitude": "",
			"geometry": "Point",
			"campusId": "PAR",
			"title": "187 Grattan Street",
			"locTypeId": 1,
			"locType": "building",
			"version": 10360,
			"bldgId": 257,
			"description": "",
			"addr1": "187 Grattan Street",
			"addr2": "",
			"locationId": 115
		},
		"geometry": {
			"type": "Point",
			"coordinates": [144.962776, -37.800537]
		}
	}, {
		"type": "Feature",
		"properties": {
			"altitude": "",
			"geometry": "Point",
			"campusId": "PAR",
			"title": "179 Grattan Street",
			"locTypeId": 1,
			"locType": "building",
			"version": 10359,
			"bldgId": 256,
			"description": "",
			"addr1": "179 Grattan Street",
			"addr2": "",
			"locationId": 114
		},
		"geometry": {
			"type": "Point",
			"coordinates": [144.962953, -37.800551]
		}
	}, {
		"type": "Feature",
		"properties": {
			"altitude": "",
			"geometry": "Point",
			"campusId": "PAR",
			"title": "172 Bouverie Street",
			"locTypeId": 1,
			"locType": "building",
			"version": 10358,
			"bldgId": 254,
			"description": "",
			"addr1": "172 Bouverie Street",
			"addr2": "",
			"locationId": 113
		},
		"geometry": {
			"type": "Point",
			"coordinates": [144.962752, -37.800678]
		}
	}, {
		"type": "Feature",
		"properties": {
			"altitude": "",
			"geometry": "Point",
			"campusId": "PAR",
			"title": "155 Barry Street",
			"locTypeId": 1,
			"locType": "building",
			"version": 10357,
			"bldgId": 251,
			"description": "",
			"addr1": "155 Barry Street",
			"addr2": "",
			"locationId": 112
		},
		"geometry": {
			"type": "Point",
			"coordinates": [144.959533, -37.800389]
		}
	}, {
		"type": "Feature",
		"properties": {
			"altitude": "",
			"geometry": "Point",
			"campusId": "PAR",
			"title": "233 Bouverie Street",
			"locTypeId": 1,
			"locType": "building",
			"version": 10356,
			"bldgId": 250,
			"description": "",
			"addr1": "233 Bouverie Street",
			"addr2": "",
			"locationId": 111
		},
		"geometry": {
			"type": "Point",
			"coordinates": [144.961937, -37.801016]
		}
	}, {
		"type": "Feature",
		"properties": {
			"altitude": "",
			"geometry": "Point",
			"campusId": "PAR",
			"title": "688-690 Elizabeth Street (Mu Mailroom)",
			"locTypeId": 1,
			"locType": "building",
			"version": 10355,
			"bldgId": 247,
			"description": "",
			"addr1": "688 Elizabeth St",
			"addr2": "",
			"locationId": 110
		},
		"geometry": {
			"type": "Point",
			"coordinates": [144.958196, -37.802338]
		}
	}, {
		"type": "Feature",
		"properties": {
			"altitude": "",
			"geometry": "Point",
			"campusId": "PAR",
			"title": "550 Swanston Street",
			"locTypeId": 1,
			"locType": "building",
			"version": 10354,
			"bldgId": 246,
			"description": "",
			"addr1": "550 Swanston Street",
			"addr2": "",
			"locationId": 109
		},
		"geometry": {
			"type": "Point",
			"coordinates": [144.96386, -37.803848]
		}
	}, {
		"type": "Feature",
		"properties": {
			"altitude": "",
			"geometry": "Point",
			"campusId": "PAR",
			"title": "800 Swanston Street",
			"locTypeId": 1,
			"locType": "building",
			"version": 10353,
			"bldgId": 244,
			"description": "",
			"addr1": "Optometry & Vision Scienc",
			"addr2": "",
			"locationId": 108
		},
		"geometry": {
			"type": "Point",
			"coordinates": [144.964691, -37.797811]
		}
	}, {
		"type": "Feature",
		"properties": {
			"altitude": "",
			"geometry": "Point",
			"campusId": "PAR",
			"title": "715 Swanston Street, First Floor",
			"locTypeId": 1,
			"locType": "building",
			"version": 10352,
			"bldgId": 243,
			"description": "",
			"addr1": "715 Swanston Street",
			"addr2": "",
			"locationId": 107
		},
		"geometry": {
			"type": "Point",
			"coordinates": [144.963422, -37.801146]
		}
	}, {
		"type": "Feature",
		"properties": {
			"altitude": "",
			"geometry": "Point",
			"campusId": "PAR",
			"title": "8-14 Malvina Place",
			"locTypeId": 1,
			"locType": "building",
			"version": 10351,
			"bldgId": 242,
			"description": "",
			"addr1": "8-14 Malvina Place",
			"addr2": "",
			"locationId": 106
		},
		"geometry": {
			"type": "Point",
			"coordinates": [144.961822, -37.800579]
		}
	}, {
		"type": "Feature",
		"properties": {
			"altitude": "",
			"geometry": "Point",
			"campusId": "PAR",
			"title": "14-20 Blackwood Street, Lvl 7",
			"locTypeId": 1,
			"locType": "building",
			"version": 10350,
			"bldgId": 236,
			"description": "",
			"addr1": "14-20 Blackwood Street",
			"addr2": "",
			"locationId": 105
		},
		"geometry": {
			"type": "Point",
			"coordinates": [144.955033, -37.801675]
		}
	}, {
		"type": "Feature",
		"properties": {
			"altitude": "",
			"geometry": "Point",
			"campusId": "PAR",
			"title": "Mus Club Room",
			"locTypeId": 1,
			"locType": "building",
			"version": 10349,
			"bldgId": 235,
			"description": "",
			"addr1": "North Of Oval",
			"addr2": "",
			"locationId": 104
		},
		"geometry": {
			"type": "Point",
			"coordinates": [144.962222, -37.793646]
		}
	}, {
		"type": "Feature",
		"properties": {
			"altitude": "",
			"geometry": "Point",
			"campusId": "PAR",
			"title": "Mus Grand Stand",
			"locTypeId": 1,
			"locType": "building",
			"version": 10348,
			"bldgId": 234,
			"description": "",
			"addr1": "East Of Oval",
			"addr2": "",
			"locationId": 103
		},
		"geometry": {
			"type": "Point",
			"coordinates": [144.96084, -37.794191]
		}
	}, {
		"type": "Feature",
		"properties": {
			"altitude": "",
			"geometry": "Point",
			"campusId": "PAR",
			"title": "169-171 Berkeley Street",
			"locTypeId": 1,
			"locType": "building",
			"version": 10347,
			"bldgId": 224,
			"description": "",
			"addr1": "169-171 Berkeley Street",
			"addr2": "",
			"locationId": 102
		},
		"geometry": {
			"type": "Point",
			"coordinates": [144.958221, -37.801566]
		}
	}, {
		"type": "Feature",
		"properties": {
			"altitude": "",
			"geometry": "Point",
			"campusId": "PAR",
			"title": "33 Lincoln Square Sth",
			"locTypeId": 1,
			"locType": "building",
			"version": 10346,
			"bldgId": 223,
			"description": "",
			"addr1": "33 Lincoln Sq. South",
			"addr2": "",
			"locationId": 101
		},
		"geometry": {
			"type": "Point",
			"coordinates": [144.962265, -37.803398]
		}
	}, {
		"type": "Feature",
		"properties": {
			"altitude": "",
			"geometry": "Point",
			"campusId": "PAR",
			"title": "766 Elizabeth Street, Lvl G, 3 & 4",
			"locTypeId": 1,
			"locType": "building",
			"version": 10345,
			"bldgId": 222,
			"description": "",
			"addr1": "766 Elizabeth Street",
			"addr2": "",
			"locationId": 100
		},
		"geometry": {
			"type": "Point",
			"coordinates": [144.9581, -37.800585]
		}
	}, {
		"type": "Feature",
		"properties": {
			"altitude": "",
			"geometry": "Point",
			"campusId": "PAR",
			"title": "31 - 47 Barry Street Lvl 3",
			"locTypeId": 1,
			"locType": "building",
			"version": 10344,
			"bldgId": 221,
			"description": "",
			"addr1": "45 Barry Street",
			"addr2": "",
			"locationId": 99
		},
		"geometry": {
			"type": "Point",
			"coordinates": [144.959518, -37.803269]
		}
	}, {
		"type": "Feature",
		"properties": {
			"altitude": "",
			"geometry": "Point",
			"campusId": "PAR",
			"title": "780 Elizabeth Street",
			"locTypeId": 1,
			"locType": "building",
			"version": 10343,
			"bldgId": 220,
			"description": "",
			"addr1": "780, Elizabeth Street",
			"addr2": "",
			"locationId": 98
		},
		"geometry": {
			"type": "Point",
			"coordinates": [144.957997, -37.800419]
		}
	}, {
		"type": "Feature",
		"properties": {
			"altitude": "",
			"geometry": "Point",
			"campusId": "PAR",
			"title": "11-13 Lincoln Sq. South",
			"locTypeId": 1,
			"locType": "building",
			"version": 10342,
			"bldgId": 219,
			"description": "",
			"addr1": "11-13 Lincoln Sq. Pl. Sth.",
			"addr2": "",
			"locationId": 97
		},
		"geometry": {
			"type": "Point",
			"coordinates": [144.962973, -37.803381]
		}
	}, {
		"type": "Feature",
		"properties": {
			"altitude": "",
			"geometry": "Point",
			"campusId": "PAR",
			"title": "631 Swanston Street",
			"locTypeId": 1,
			"locType": "building",
			"version": 10341,
			"bldgId": 218,
			"description": "",
			"addr1": "631 Swanston St.",
			"addr2": "",
			"locationId": 96
		},
		"geometry": {
			"type": "Point",
			"coordinates": [144.963137, -37.803505]
		}
	}, {
		"type": "Feature",
		"properties": {
			"altitude": "",
			"geometry": "Point",
			"campusId": "PAR",
			"title": "631 Swanston Street",
			"locTypeId": 1,
			"locType": "building",
			"version": 10340,
			"bldgId": 217,
			"description": "",
			"addr1": "623-629 Swanston St.",
			"addr2": "",
			"locationId": 95
		},
		"geometry": {
			"type": "Point",
			"coordinates": [144.963141, -37.803793]
		}
	}, {
		"type": "Feature",
		"properties": {
			"altitude": "",
			"geometry": "Point",
			"campusId": "PAR",
			"title": "97 Barry Street",
			"locTypeId": 1,
			"locType": "building",
			"version": 10339,
			"bldgId": 210,
			"description": "",
			"addr1": "97 Barry Street",
			"addr2": "",
			"locationId": 94
		},
		"geometry": {
			"type": "Point",
			"coordinates": [144.959371, -37.801713]
		}
	}, {
		"type": "Feature",
		"properties": {
			"altitude": "",
			"geometry": "Point",
			"campusId": "PAR",
			"title": "202-206 Berkeley Street",
			"locTypeId": 1,
			"locType": "building",
			"version": 10338,
			"bldgId": 207,
			"description": "",
			"addr1": "202-206 Berkeley Street",
			"addr2": "",
			"locationId": 93
		},
		"geometry": {
			"type": "Point",
			"coordinates": [144.958942, -37.80088]
		}
	}, {
		"type": "Feature",
		"properties": {
			"altitude": "",
			"geometry": "Point",
			"campusId": "PAR",
			"title": "214 Berkeley Street",
			"locTypeId": 1,
			"locType": "building",
			"version": 10337,
			"bldgId": 206,
			"description": "",
			"addr1": "214 Berkeley Street",
			"addr2": "",
			"locationId": 92
		},
		"geometry": {
			"type": "Point",
			"coordinates": [144.958977, -37.800614]
		}
	}, {
		"type": "Feature",
		"properties": {
			"altitude": "",
			"geometry": "Point",
			"campusId": "PAR",
			"title": "208-210 Berkeley Street",
			"locTypeId": 1,
			"locType": "building",
			"version": 10336,
			"bldgId": 204,
			"description": "",
			"addr1": "208-210 Berkeley Street",
			"addr2": "",
			"locationId": 91
		},
		"geometry": {
			"type": "Point",
			"coordinates": [144.95896, -37.80077]
		}
	}, {
		"type": "Feature",
		"properties": {
			"altitude": "",
			"geometry": "Point",
			"campusId": "PAR",
			"title": "213-215 Grattan Street",
			"locTypeId": 1,
			"locType": "building",
			"version": 10335,
			"bldgId": 203,
			"description": "",
			"addr1": "213-217 Grattan Street",
			"addr2": "",
			"locationId": 90
		},
		"geometry": {
			"type": "Point",
			"coordinates": [144.96158, -37.800422]
		}
	}, {
		"type": "Feature",
		"properties": {
			"altitude": "",
			"geometry": "Point",
			"campusId": "PAR",
			"title": "Thomas Cherry Building",
			"locTypeId": 1,
			"locType": "building",
			"version": 10334,
			"bldgId": 201,
			"description": "",
			"addr1": "806-814 Swanston Street",
			"addr2": "",
			"locationId": 89
		},
		"geometry": {
			"type": "Point",
			"coordinates": [144.964923, -37.797352]
		}
	}, {
		"type": "Feature",
		"properties": {
			"altitude": "",
			"geometry": "Point",
			"campusId": "PAR",
			"title": "Mccoy Building/Earth Scie",
			"locTypeId": 1,
			"locType": "building",
			"version": 10333,
			"bldgId": 200,
			"description": "",
			"addr1": "253-275 Elgin Street",
			"addr2": "",
			"locationId": 88
		},
		"geometry": {
			"type": "Point",
			"coordinates": [144.965252, -37.797107]
		}
	}, {
		"type": "Feature",
		"properties": {
			"altitude": "",
			"geometry": "Point",
			"campusId": "PAR",
			"title": "757 Swanston",
			"locTypeId": 1,
			"locType": "building",
			"version": 10332,
			"bldgId": 199,
			"description": "",
			"addr1": "757 Swanston Street",
			"addr2": "",
			"locationId": 87
		},
		"geometry": {
			"type": "Point",
			"coordinates": [144.96376, -37.799908]
		}
	}, {
		"type": "Feature",
		"properties": {
			"altitude": "",
			"geometry": "Point",
			"campusId": "PAR",
			"title": "1888 Building",
			"locTypeId": 1,
			"locType": "building",
			"version": 10331,
			"bldgId": 198,
			"description": "",
			"addr1": "University Of Melbourne",
			"addr2": "",
			"locationId": 86
		},
		"geometry": {
			"type": "Point",
			"coordinates": [144.963202, -37.799821]
		}
	}, {
		"type": "Feature",
		"properties": {
			"altitude": "",
			"geometry": "Point",
			"campusId": "PAR",
			"title": "John Smyth Building",
			"locTypeId": 1,
			"locType": "building",
			"version": 10330,
			"bldgId": 197,
			"description": "",
			"addr1": "University Of Melbourne",
			"addr2": "",
			"locationId": 85
		},
		"geometry": {
			"type": "Point",
			"coordinates": [144.963741, -37.799435]
		}
	}, {
		"type": "Feature",
		"properties": {
			"altitude": "",
			"geometry": "Point",
			"campusId": "PAR",
			"title": "Genetics Building",
			"locTypeId": 1,
			"locType": "building",
			"version": 10329,
			"bldgId": 194,
			"description": "",
			"addr1": "University Of Melbourne",
			"addr2": "",
			"locationId": 84
		},
		"geometry": {
			"type": "Point",
			"coordinates": [144.958798, -37.797895]
		}
	}, {
		"type": "Feature",
		"properties": {
			"altitude": "",
			"geometry": "Point",
			"campusId": "PAR",
			"title": "Elec. And Electron Eng.",
			"locTypeId": 1,
			"locType": "building",
			"version": 10328,
			"bldgId": 193,
			"description": "",
			"addr1": "University Of Melbourne",
			"addr2": "",
			"locationId": 83
		},
		"geometry": {
			"type": "Point",
			"coordinates": [144.961184, -37.798847]
		}
	}, {
		"type": "Feature",
		"properties": {
			"altitude": "",
			"geometry": "Point",
			"campusId": "PAR",
			"title": "David Caro Buliding",
			"locTypeId": 1,
			"locType": "building",
			"version": 10327,
			"bldgId": 192,
			"description": "",
			"addr1": "University Of Melbourne",
			"addr2": "",
			"locationId": 82
		},
		"geometry": {
			"type": "Point",
			"coordinates": [144.963988, -37.796839]
		}
	}, {
		"type": "Feature",
		"properties": {
			"altitude": "",
			"geometry": "Point",
			"campusId": "PAR",
			"title": "John Medley Building",
			"locTypeId": 1,
			"locType": "building",
			"version": 10326,
			"bldgId": 191,
			"description": "",
			"addr1": "University Of Melbourne",
			"addr2": "",
			"locationId": 81
		},
		"geometry": {
			"type": "Point",
			"coordinates": [144.960523, -37.799238]
		}
	}, {
		"type": "Feature",
		"properties": {
			"altitude": "",
			"geometry": "Point",
			"campusId": "PAR",
			"title": "Frank Tate Building",
			"locTypeId": 1,
			"locType": "building",
			"version": 10325,
			"bldgId": 189,
			"description": "",
			"addr1": "University Of Melbourne",
			"addr2": "",
			"locationId": 80
		},
		"geometry": {
			"type": "Point",
			"coordinates": [144.963292, -37.799293]
		}
	}, {
		"type": "Feature",
		"properties": {
			"altitude": "",
			"geometry": "Point",
			"campusId": "PAR",
			"title": "Gatekeeper's Lodge",
			"locTypeId": 1,
			"locType": "building",
			"version": 10324,
			"bldgId": 187,
			"description": "",
			"addr1": "University Of Melbourne",
			"addr2": "",
			"locationId": 79
		},
		"geometry": {
			"type": "Point",
			"coordinates": [144.960315, -37.79975]
		}
	}, {
		"type": "Feature",
		"properties": {
			"altitude": "",
			"geometry": "Point",
			"campusId": "PAR",
			"title": "Microbiology Building",
			"locTypeId": 1,
			"locType": "building",
			"version": 10323,
			"bldgId": 184,
			"description": "",
			"addr1": "University Of Melbourne",
			"addr2": "",
			"locationId": 78
		},
		"geometry": {
			"type": "Point",
			"coordinates": [144.958417, -37.798666]
		}
	}, {
		"type": "Feature",
		"properties": {
			"altitude": "",
			"geometry": "Point",
			"campusId": "PAR",
			"title": "Howard Florey",
			"locTypeId": 1,
			"locType": "building",
			"version": 10322,
			"bldgId": 183,
			"description": "",
			"addr1": "University Of Melbourne",
			"addr2": "",
			"locationId": 77
		},
		"geometry": {
			"type": "Point",
			"coordinates": [144.958195, -37.799049]
		}
	}, {
		"type": "Feature",
		"properties": {
			"altitude": "",
			"geometry": "Point",
			"campusId": "PAR",
			"title": "Brownless Medical Library",
			"locTypeId": 1,
			"locType": "building",
			"version": 10321,
			"bldgId": 182,
			"description": "",
			"addr1": "University Of Melbourne",
			"addr2": "",
			"locationId": 76
		},
		"geometry": {
			"type": "Point",
			"coordinates": [144.959446, -37.798984]
		}
	}, {
		"type": "Feature",
		"properties": {
			"altitude": "",
			"geometry": "Point",
			"campusId": "PAR",
			"title": "Medical Building",
			"locTypeId": 1,
			"locType": "building",
			"version": 10320,
			"bldgId": 181,
			"description": "",
			"addr1": "University Of Melbourne",
			"addr2": "",
			"locationId": 75
		},
		"geometry": {
			"type": "Point",
			"coordinates": [144.958905, -37.799241]
		}
	}, {
		"type": "Feature",
		"properties": {
			"altitude": "",
			"geometry": "Point",
			"campusId": "PAR",
			"title": "Baillieu Library",
			"locTypeId": 1,
			"locType": "building",
			"version": 10319,
			"bldgId": 177,
			"description": "",
			"addr1": "University Of Melbourne",
			"addr2": "",
			"locationId": 74
		},
		"geometry": {
			"type": "Point",
			"coordinates": [144.959395, -37.798366]
		}
	}, {
		"type": "Feature",
		"properties": {
			"altitude": "",
			"geometry": "Point",
			"campusId": "PAR",
			"title": "Engineering Block D",
			"locTypeId": 1,
			"locType": "building",
			"version": 10318,
			"bldgId": 176,
			"description": "",
			"addr1": "University Of Melbourne",
			"addr2": "",
			"locationId": 73
		},
		"geometry": {
			"type": "Point",
			"coordinates": [144.961851, -37.799938]
		}
	}, {
		"type": "Feature",
		"properties": {
			"altitude": "",
			"geometry": "Point",
			"campusId": "PAR",
			"title": "Engineering Block B",
			"locTypeId": 1,
			"locType": "building",
			"version": 10317,
			"bldgId": 175,
			"description": "",
			"addr1": "University Of Melbourne",
			"addr2": "",
			"locationId": 72
		},
		"geometry": {
			"type": "Point",
			"coordinates": [144.960882, -37.799821]
		}
	}, {
		"type": "Feature",
		"properties": {
			"altitude": "",
			"geometry": "Point",
			"campusId": "PAR",
			"title": "Engineering Block C",
			"locTypeId": 1,
			"locType": "building",
			"version": 10316,
			"bldgId": 174,
			"description": "",
			"addr1": "University Of Melbourne",
			"addr2": "",
			"locationId": 71
		},
		"geometry": {
			"type": "Point",
			"coordinates": [144.961306, -37.799861]
		}
	}, {
		"type": "Feature",
		"properties": {
			"altitude": "",
			"geometry": "Point",
			"campusId": "PAR",
			"title": "Old Engineering School",
			"locTypeId": 1,
			"locType": "building",
			"version": 10315,
			"bldgId": 173,
			"description": "",
			"addr1": "University Of Melbourne",
			"addr2": "",
			"locationId": 70
		},
		"geometry": {
			"type": "Point",
			"coordinates": [144.961748, -37.799506]
		}
	}, {
		"type": "Feature",
		"properties": {
			"altitude": "",
			"geometry": "Point",
			"campusId": "PAR",
			"title": "Erc Building",
			"locTypeId": 1,
			"locType": "building",
			"version": 10314,
			"bldgId": 171,
			"description": "",
			"addr1": "University Of Melbourne",
			"addr2": "",
			"locationId": 69
		},
		"geometry": {
			"type": "Point",
			"coordinates": [144.963067, -37.799658]
		}
	}, {
		"type": "Feature",
		"properties": {
			"altitude": "",
			"geometry": "Point",
			"campusId": "PAR",
			"title": "Mechanical Engineering",
			"locTypeId": 1,
			"locType": "building",
			"version": 10313,
			"bldgId": 170,
			"description": "",
			"addr1": "University Of Melbourne",
			"addr2": "",
			"locationId": 68
		},
		"geometry": {
			"type": "Point",
			"coordinates": [144.962283, -37.799845]
		}
	}, {
		"type": "Feature",
		"properties": {
			"altitude": "",
			"geometry": "Point",
			"campusId": "PAR",
			"title": "Engineering Workshops",
			"locTypeId": 1,
			"locType": "building",
			"version": 10312,
			"bldgId": 169,
			"description": "",
			"addr1": "University Of Melbourne",
			"addr2": "",
			"locationId": 67
		},
		"geometry": {
			"type": "Point",
			"coordinates": [144.962306, -37.799434]
		}
	}, {
		"type": "Feature",
		"properties": {
			"altitude": "",
			"geometry": "Point",
			"campusId": "PAR",
			"title": "Doug Mcdonell Building",
			"locTypeId": 1,
			"locType": "building",
			"version": 10311,
			"bldgId": 168,
			"description": "",
			"addr1": "University Of Melbourne",
			"addr2": "",
			"locationId": 66
		},
		"geometry": {
			"type": "Point",
			"coordinates": [144.962968, -37.798977]
		}
	}, {
		"type": "Feature",
		"properties": {
			"altitude": "",
			"geometry": "Point",
			"campusId": "PAR",
			"title": "Chemical Engineering #2.",
			"locTypeId": 1,
			"locType": "building",
			"version": 10310,
			"bldgId": 167,
			"description": "",
			"addr1": "University Of Melbourne",
			"addr2": "",
			"locationId": 65
		},
		"geometry": {
			"type": "Point",
			"coordinates": [144.962044, -37.799061]
		}
	}, {
		"type": "Feature",
		"properties": {
			"altitude": "",
			"geometry": "Point",
			"campusId": "PAR",
			"title": "Old Metallurgy",
			"locTypeId": 1,
			"locType": "building",
			"version": 10309,
			"bldgId": 166,
			"description": "",
			"addr1": "University Of Melbourne",
			"addr2": "",
			"locationId": 64
		},
		"geometry": {
			"type": "Point",
			"coordinates": [144.961786, -37.799038]
		}
	}, {
		"type": "Feature",
		"properties": {
			"altitude": "",
			"geometry": "Point",
			"campusId": "PAR",
			"title": "Chemical Engineering #1.",
			"locTypeId": 1,
			"locType": "building",
			"version": 10308,
			"bldgId": 165,
			"description": "",
			"addr1": "University Of Melbourne",
			"addr2": "",
			"locationId": 63
		},
		"geometry": {
			"type": "Point",
			"coordinates": [144.962243, -37.798687]
		}
	}, {
		"type": "Feature",
		"properties": {
			"altitude": "",
			"geometry": "Point",
			"campusId": "PAR",
			"title": "Building 164",
			"locTypeId": 1,
			"locType": "building",
			"version": 10307,
			"bldgId": 164,
			"description": "",
			"addr1": "University Of Melbourne",
			"addr2": "",
			"locationId": 62
		},
		"geometry": {
			"type": "Point",
			"coordinates": [144.962439, -37.799026]
		}
	}, {
		"type": "Feature",
		"properties": {
			"altitude": "",
			"geometry": "Point",
			"campusId": "PAR",
			"title": "Walter Boas",
			"locTypeId": 1,
			"locType": "building",
			"version": 10306,
			"bldgId": 163,
			"description": "",
			"addr1": "University Of Melbourne",
			"addr2": "",
			"locationId": 61
		},
		"geometry": {
			"type": "Point",
			"coordinates": [144.961788, -37.798526]
		}
	}, {
		"type": "Feature",
		"properties": {
			"altitude": "",
			"geometry": "Point",
			"campusId": "PAR",
			"title": "Alice Hoy Building",
			"locTypeId": 1,
			"locType": "building",
			"version": 10305,
			"bldgId": 162,
			"description": "",
			"addr1": "University Of Melbourne",
			"addr2": "",
			"locationId": 60
		},
		"geometry": {
			"type": "Point",
			"coordinates": [144.963271, -37.798636]
		}
	}, {
		"type": "Feature",
		"properties": {
			"altitude": "",
			"geometry": "Point",
			"campusId": "PAR",
			"title": "Building 161",
			"locTypeId": 1,
			"locType": "building",
			"version": 10304,
			"bldgId": 161,
			"description": "",
			"addr1": "University Of Melbourne",
			"addr2": "",
			"locationId": 59
		},
		"geometry": {
			"type": "Point",
			"coordinates": [144.962149, -37.798436]
		}
	}, {
		"type": "Feature",
		"properties": {
			"altitude": "",
			"geometry": "Point",
			"campusId": "PAR",
			"title": "Sidney Myer Asia Centre",
			"locTypeId": 1,
			"locType": "building",
			"version": 10302,
			"bldgId": 158,
			"description": "",
			"addr1": "University Of Melbourne",
			"addr2": "",
			"locationId": 57
		},
		"geometry": {
			"type": "Point",
			"coordinates": [144.963916, -37.798903]
		}
	}, {
		"type": "Feature",
		"properties": {
			"altitude": "",
			"geometry": "Point",
			"campusId": "PAR",
			"title": "Richard Berry Annexe",
			"locTypeId": 1,
			"locType": "building",
			"version": 10301,
			"bldgId": 157,
			"description": "",
			"addr1": "University Of Melbourne",
			"addr2": "",
			"locationId": 56
		},
		"geometry": {
			"type": "Point",
			"coordinates": [144.963259, -37.797936]
		}
	}, {
		"type": "Feature",
		"properties": {
			"altitude": "",
			"geometry": "Point",
			"campusId": "PAR",
			"title": "Old Geology South",
			"locTypeId": 1,
			"locType": "building",
			"version": 10300,
			"bldgId": 156,
			"description": "",
			"addr1": "University Of Melbourne",
			"addr2": "",
			"locationId": 55
		},
		"geometry": {
			"type": "Point",
			"coordinates": [144.962865, -37.798184]
		}
	}, {
		"type": "Feature",
		"properties": {
			"altitude": "",
			"geometry": "Point",
			"campusId": "PAR",
			"title": "Old Geology Building",
			"locTypeId": 1,
			"locType": "building",
			"version": 10299,
			"bldgId": 155,
			"description": "",
			"addr1": "University Of Melbourne",
			"addr2": "",
			"locationId": 54
		},
		"geometry": {
			"type": "Point",
			"coordinates": [144.96294, -37.797902]
		}
	}, {
		"type": "Feature",
		"properties": {
			"altitude": "",
			"geometry": "Point",
			"campusId": "PAR",
			"title": "Chemistry-East Wing",
			"locTypeId": 1,
			"locType": "building",
			"version": 10298,
			"bldgId": 154,
			"description": "",
			"addr1": "University Of Melbourne",
			"addr2": "",
			"locationId": 53
		},
		"geometry": {
			"type": "Point",
			"coordinates": [144.962519, -37.798061]
		}
	}, {
		"type": "Feature",
		"properties": {
			"altitude": "",
			"geometry": "Point",
			"campusId": "PAR",
			"title": "Chemistry",
			"locTypeId": 1,
			"locType": "building",
			"version": 10297,
			"bldgId": 153,
			"description": "",
			"addr1": "University Of Melbourne",
			"addr2": "",
			"locationId": 52
		},
		"geometry": {
			"type": "Point",
			"coordinates": [144.962111, -37.797946]
		}
	}, {
		"type": "Feature",
		"properties": {
			"altitude": "",
			"geometry": "Point",
			"campusId": "PAR",
			"title": "Raymond Priestley Bldg.",
			"locTypeId": 1,
			"locType": "building",
			"version": 10296,
			"bldgId": 152,
			"description": "",
			"addr1": "University Of Melbourne",
			"addr2": "",
			"locationId": 51
		},
		"geometry": {
			"type": "Point",
			"coordinates": [144.961603, -37.797436]
		}
	}, {
		"type": "Feature",
		"properties": {
			"altitude": "",
			"geometry": "Point",
			"campusId": "PAR",
			"title": "Wilson Hall",
			"locTypeId": 1,
			"locType": "building",
			"version": 10295,
			"bldgId": 151,
			"description": "",
			"addr1": "University Of Melbourne",
			"addr2": "",
			"locationId": 50
		},
		"geometry": {
			"type": "Point",
			"coordinates": [144.961297, -37.798214]
		}
	}, {
		"type": "Feature",
		"properties": {
			"altitude": "",
			"geometry": "Point",
			"campusId": "PAR",
			"title": "Old Quadrangle Building",
			"locTypeId": 1,
			"locType": "building",
			"version": 10294,
			"bldgId": 150,
			"description": "",
			"addr1": "University Of Melbourne",
			"addr2": "",
			"locationId": 49
		},
		"geometry": {
			"type": "Point",
			"coordinates": [144.960747, -37.79772]
		}
	}, {
		"type": "Feature",
		"properties": {
			"altitude": "",
			"geometry": "Point",
			"campusId": "PAR",
			"title": "Old Arts Building",
			"locTypeId": 1,
			"locType": "building",
			"version": 10293,
			"bldgId": 149,
			"description": "",
			"addr1": "University Of Melbourne",
			"addr2": "",
			"locationId": 48
		},
		"geometry": {
			"type": "Point",
			"coordinates": [144.960163, -37.797766]
		}
	}, {
		"type": "Feature",
		"properties": {
			"altitude": "",
			"geometry": "Point",
			"campusId": "PAR",
			"title": "Arts West",
			"locTypeId": 1,
			"locType": "building",
			"version": 10292,
			"bldgId": 148,
			"description": "",
			"addr1": "University Of Melbourne",
			"addr2": "",
			"locationId": 47
		},
		"geometry": {
			"type": "Point",
			"coordinates": [144.959351, -37.797763]
		}
	}, {
		"type": "Feature",
		"properties": {
			"altitude": "",
			"geometry": "Point",
			"campusId": "PAR",
			"title": "Zoology Building",
			"locTypeId": 1,
			"locType": "building",
			"version": 10291,
			"bldgId": 147,
			"description": "",
			"addr1": "University Of Melbourne",
			"addr2": "",
			"locationId": 46
		},
		"geometry": {
			"type": "Point",
			"coordinates": [144.95895, -37.79725]
		}
	}, {
		"type": "Feature",
		"properties": {
			"altitude": "",
			"geometry": "Point",
			"campusId": "PAR",
			"title": "Kenneth Myer Building",
			"locTypeId": 1,
			"locType": "building",
			"version": 10290,
			"bldgId": 144,
			"description": "",
			"addr1": "30 Royal Pde",
			"addr2": "",
			"locationId": 45
		},
		"geometry": {
			"type": "Point",
			"coordinates": [144.958547, -37.798244]
		}
	}, {
		"type": "Feature",
		"properties": {
			"altitude": "",
			"geometry": "Point",
			"campusId": "PAR",
			"title": "Natural Philosophy",
			"locTypeId": 1,
			"locType": "building",
			"version": 10289,
			"bldgId": 143,
			"description": "",
			"addr1": "University Of Melbourne",
			"addr2": "",
			"locationId": 44
		},
		"geometry": {
			"type": "Point",
			"coordinates": [144.960166, -37.797214]
		}
	}, {
		"type": "Feature",
		"properties": {
			"altitude": "",
			"geometry": "Point",
			"campusId": "PAR",
			"title": "Melb Schl Of Land & Envir",
			"locTypeId": 1,
			"locType": "building",
			"version": 10288,
			"bldgId": 142,
			"description": "",
			"addr1": "University Of Melbourne",
			"addr2": "",
			"locationId": 43
		},
		"geometry": {
			"type": "Point",
			"coordinates": [144.958582, -37.796569]
		}
	}, {
		"type": "Feature",
		"properties": {
			"altitude": "",
			"geometry": "Point",
			"campusId": "PAR",
			"title": "Conservatorium Of Music",
			"locTypeId": 1,
			"locType": "building",
			"version": 10287,
			"bldgId": 141,
			"description": "",
			"addr1": "University Of Melbourne",
			"addr2": "",
			"locationId": 42
		},
		"geometry": {
			"type": "Point",
			"coordinates": [144.958489, -37.797664]
		}
	}, {
		"type": "Feature",
		"properties": {
			"altitude": "",
			"geometry": "Point",
			"campusId": "PAR",
			"title": "Grainger Museum",
			"locTypeId": 1,
			"locType": "building",
			"version": 10286,
			"bldgId": 140,
			"description": "",
			"addr1": "University Of Melbourne",
			"addr2": "",
			"locationId": 41
		},
		"geometry": {
			"type": "Point",
			"coordinates": [144.958417, -37.797289]
		}
	}, {
		"type": "Feature",
		"properties": {
			"altitude": "",
			"geometry": "Point",
			"campusId": "PAR",
			"title": "Babel Building",
			"locTypeId": 1,
			"locType": "building",
			"version": 10285,
			"bldgId": 139,
			"description": "",
			"addr1": "University Of Melbourne",
			"addr2": "",
			"locationId": 40
		},
		"geometry": {
			"type": "Point",
			"coordinates": [144.959619, -37.797297]
		}
	}, {
		"type": "Feature",
		"properties": {
			"altitude": "",
			"geometry": "Point",
			"campusId": "PAR",
			"title": "Ian Potter Museum Of Art",
			"locTypeId": 1,
			"locType": "building",
			"version": 10283,
			"bldgId": 136,
			"description": "",
			"addr1": "University Of Melbourne",
			"addr2": "",
			"locationId": 38
		},
		"geometry": {
			"type": "Point",
			"coordinates": [144.964142, -37.797487]
		}
	}, {
		"type": "Feature",
		"properties": {
			"altitude": "",
			"geometry": "Point",
			"campusId": "PAR",
			"title": "Elisabeth Murdoch",
			"locTypeId": 1,
			"locType": "building",
			"version": 10282,
			"bldgId": 134,
			"description": "",
			"addr1": "University Of Melbourne",
			"addr2": "",
			"locationId": 37
		},
		"geometry": {
			"type": "Point",
			"coordinates": [144.96344, -37.797415]
		}
	}, {
		"type": "Feature",
		"properties": {
			"altitude": "",
			"geometry": "Point",
			"campusId": "PAR",
			"title": "Union House",
			"locTypeId": 1,
			"locType": "building",
			"version": 10281,
			"bldgId": 130,
			"description": "",
			"addr1": "University Of Melbourne",
			"addr2": "",
			"locationId": 36
		},
		"geometry": {
			"type": "Point",
			"coordinates": [144.960902, -37.796863]
		}
	}, {
		"type": "Feature",
		"properties": {
			"altitude": "",
			"geometry": "Point",
			"campusId": "PAR",
			"title": "Old Physics Building",
			"locTypeId": 1,
			"locType": "building",
			"version": 10280,
			"bldgId": 128,
			"description": "",
			"addr1": "University Of Melbourne",
			"addr2": "",
			"locationId": 35
		},
		"geometry": {
			"type": "Point",
			"coordinates": [144.960615, -37.797309]
		}
	}, {
		"type": "Feature",
		"properties": {
			"altitude": "",
			"geometry": "Point",
			"campusId": "PAR",
			"title": "Botany North Extension",
			"locTypeId": 1,
			"locType": "building",
			"version": 10279,
			"bldgId": 123,
			"description": "",
			"addr1": "University Of Melbourne",
			"addr2": "",
			"locationId": 34
		},
		"geometry": {
			"type": "Point",
			"coordinates": [144.959437, -37.796292]
		}
	}, {
		"type": "Feature",
		"properties": {
			"altitude": "",
			"geometry": "Point",
			"campusId": "PAR",
			"title": "Botany",
			"locTypeId": 1,
			"locType": "building",
			"version": 10278,
			"bldgId": 122,
			"description": "",
			"addr1": "University Of Melbourne",
			"addr2": "",
			"locationId": 33
		},
		"geometry": {
			"type": "Point",
			"coordinates": [144.959656, -37.796745]
		}
	}, {
		"type": "Feature",
		"properties": {
			"altitude": "",
			"geometry": "Point",
			"campusId": "PAR",
			"title": "Redmond Barry Building",
			"locTypeId": 1,
			"locType": "building",
			"version": 10277,
			"bldgId": 115,
			"description": "",
			"addr1": "University Of Melbourne",
			"addr2": "",
			"locationId": 32
		},
		"geometry": {
			"type": "Point",
			"coordinates": [144.962726, -37.796635]
		}
	}, {
		"type": "Feature",
		"properties": {
			"altitude": "",
			"geometry": "Point",
			"campusId": "PAR",
			"title": "Baldwin Spencer Building",
			"locTypeId": 1,
			"locType": "building",
			"version": 10276,
			"bldgId": 113,
			"description": "",
			"addr1": "University Of Melbourne",
			"addr2": "",
			"locationId": 31
		},
		"geometry": {
			"type": "Point",
			"coordinates": [144.961977, -37.796512]
		}
	}, {
		"type": "Feature",
		"properties": {
			"altitude": "",
			"geometry": "Point",
			"campusId": "PAR",
			"title": "University House",
			"locTypeId": 1,
			"locType": "building",
			"version": 10275,
			"bldgId": 112,
			"description": "",
			"addr1": "University Of Melbourne",
			"addr2": "",
			"locationId": 30
		},
		"geometry": {
			"type": "Point",
			"coordinates": [144.960146, -37.796365]
		}
	}, {
		"type": "Feature",
		"properties": {
			"altitude": "",
			"geometry": "Point",
			"campusId": "PAR",
			"title": "The Spot",
			"locTypeId": 1,
			"locType": "building",
			"version": 10274,
			"bldgId": 110,
			"description": "",
			"addr1": "198 Berkeley Street",
			"addr2": "",
			"locationId": 29
		},
		"geometry": {
			"type": "Point",
			"coordinates": [144.958796, -37.801593]
		}
	}, {
		"type": "Feature",
		"properties": {
			"altitude": "",
			"geometry": "Point",
			"campusId": "PAR",
			"title": "Uni Square Carpark",
			"locTypeId": 1,
			"locType": "building",
			"version": 10273,
			"bldgId": 107,
			"description": "",
			"addr1": "220 Berkeley Street",
			"addr2": "",
			"locationId": 28
		},
		"geometry": {
			"type": "Point",
			"coordinates": [144.960375, -37.800469]
		}
	}, {
		"type": "Feature",
		"properties": {
			"altitude": "",
			"geometry": "Point",
			"campusId": "PAR",
			"title": "Law Building",
			"locTypeId": 1,
			"locType": "building",
			"version": 10272,
			"bldgId": 106,
			"description": "",
			"addr1": "185 Pelham Street",
			"addr2": "",
			"locationId": 27
		},
		"geometry": {
			"type": "Point",
			"coordinates": [144.960029, -37.802408]
		}
	}, {
		"type": "Feature",
		"properties": {
			"altitude": "",
			"geometry": "Point",
			"campusId": "PAR",
			"title": "Business And Economics",
			"locTypeId": 1,
			"locType": "building",
			"version": 10271,
			"bldgId": 105,
			"description": "",
			"addr1": "95-129 Barry Street",
			"addr2": "",
			"locationId": 26
		},
		"geometry": {
			"type": "Point",
			"coordinates": [144.959228, -37.801548]
		}
	}, {
		"type": "Feature",
		"properties": {
			"altitude": "",
			"geometry": "Point",
			"campusId": "PAR",
			"title": "Alan Gilbert",
			"locTypeId": 1,
			"locType": "building",
			"version": 10270,
			"bldgId": 104,
			"description": "",
			"addr1": "161 Barry Street",
			"addr2": "",
			"locationId": 25
		},
		"geometry": {
			"type": "Point",
			"coordinates": [144.959135, -37.800203]
		}
	}, {
		"type": "Feature",
		"properties": {
			"altitude": "",
			"geometry": "Point",
			"campusId": "PAR",
			"title": "David Penington Building",
			"locTypeId": 1,
			"locType": "building",
			"version": 10268,
			"bldgId": 102,
			"description": "",
			"addr1": "30 Flemington Road",
			"addr2": "",
			"locationId": 23
		},
		"geometry": {
			"type": "Point",
			"coordinates": [144.953884, -37.797951]
		}
	}, {
		"type": "Feature",
		"properties": {
			"altitude": "",
			"geometry": "Point",
			"campusId": "PAR",
			"title": "Beaurepaire Centre",
			"locTypeId": 1,
			"locType": "building",
			"version": 10267,
			"bldgId": 101,
			"description": "",
			"addr1": "University Of Melbourne",
			"addr2": "",
			"locationId": 22
		},
		"geometry": {
			"type": "Point",
			"coordinates": [144.960892, -37.79601]
		}
	}, {
		"type": "Feature",
		"properties": {
			"altitude": "",
			"geometry": "Point",
			"campusId": "CRE",
			"title": "Gymnasium",
			"locTypeId": 1,
			"locType": "building",
			"version": 10472,
			"bldgId": 754,
			"description": "",
			"addr1": "Creswick",
			"addr2": "",
			"locationId": 227
		},
		"geometry": {
			"type": "Point",
			"coordinates": [143.901352, -37.422996]
		}
	}, {
		"type": "Feature",
		"properties": {
			"altitude": "",
			"geometry": "Point",
			"campusId": "CRE",
			"title": "The Green Shed",
			"locTypeId": 1,
			"locType": "building",
			"version": 10471,
			"bldgId": 750,
			"description": "",
			"addr1": "Water Street, Creswick",
			"addr2": "",
			"locationId": 226
		},
		"geometry": {
			"type": "Point",
			"coordinates": [143.901099, -37.421255]
		}
	}, {
		"type": "Feature",
		"properties": {
			"altitude": "",
			"geometry": "Point",
			"campusId": "CRE",
			"title": "Workshop",
			"locTypeId": 1,
			"locType": "building",
			"version": 10470,
			"bldgId": 748,
			"description": "",
			"addr1": "Gas Court",
			"addr2": "",
			"locationId": 225
		},
		"geometry": {
			"type": "Point",
			"coordinates": [143.899816, -37.422535]
		}
	}, {
		"type": "Feature",
		"properties": {
			"altitude": "",
			"geometry": "Point",
			"campusId": "CRE",
			"title": "Chemical Store",
			"locTypeId": 1,
			"locType": "building",
			"version": 10469,
			"bldgId": 746,
			"description": "",
			"addr1": "Gas Court",
			"addr2": "",
			"locationId": 224
		},
		"geometry": {
			"type": "Point",
			"coordinates": [143.899919, -37.422311]
		}
	}, {
		"type": "Feature",
		"properties": {
			"altitude": "",
			"geometry": "Point",
			"campusId": "CRE",
			"title": "Forestry Institute 2",
			"locTypeId": 1,
			"locType": "building",
			"version": 10468,
			"bldgId": 744,
			"description": "",
			"addr1": "Water Street, Creswick",
			"addr2": "",
			"locationId": 223
		},
		"geometry": {
			"type": "Point",
			"coordinates": [143.900247, -37.42273]
		}
	}, {
		"type": "Feature",
		"properties": {
			"altitude": "",
			"geometry": "Point",
			"campusId": "CRE",
			"title": "Billo's Lodge",
			"locTypeId": 1,
			"locType": "building",
			"version": 10467,
			"bldgId": 741,
			"description": "",
			"addr1": "Water Street, Creswick",
			"addr2": "",
			"locationId": 222
		},
		"geometry": {
			"type": "Point",
			"coordinates": [143.902018, -37.421333]
		}
	}, {
		"type": "Feature",
		"properties": {
			"altitude": "",
			"geometry": "Point",
			"campusId": "CRE",
			"title": "Storage Rooms",
			"locTypeId": 1,
			"locType": "building",
			"version": 10466,
			"bldgId": 740,
			"description": "",
			"addr1": "Water Street, Creswick",
			"addr2": "",
			"locationId": 221
		},
		"geometry": {
			"type": "Point",
			"coordinates": [143.900251, -37.422255]
		}
	}, {
		"type": "Feature",
		"properties": {
			"altitude": "",
			"geometry": "Point",
			"campusId": "CRE",
			"title": "Cottage",
			"locTypeId": 1,
			"locType": "building",
			"version": 10465,
			"bldgId": 739,
			"description": "",
			"addr1": "Water Street, Creswick",
			"addr2": "",
			"locationId": 220
		},
		"geometry": {
			"type": "Point",
			"coordinates": [143.900007, -37.42212]
		}
	}, {
		"type": "Feature",
		"properties": {
			"altitude": "",
			"geometry": "Point",
			"campusId": "CRE",
			"title": "Residence",
			"locTypeId": 1,
			"locType": "building",
			"version": 10464,
			"bldgId": 738,
			"description": "",
			"addr1": "Water Street, Creswick",
			"addr2": "",
			"locationId": 219
		},
		"geometry": {
			"type": "Point",
			"coordinates": [143.898906, -37.421313]
		}
	}, {
		"type": "Feature",
		"properties": {
			"altitude": "",
			"geometry": "Point",
			"campusId": "CRE",
			"title": "Pyrolysis Shed",
			"locTypeId": 1,
			"locType": "building",
			"version": 10463,
			"bldgId": 737,
			"description": "",
			"addr1": "Water Street, Creswick",
			"addr2": "",
			"locationId": 218
		},
		"geometry": {
			"type": "Point",
			"coordinates": [143.898951, -37.421099]
		}
	}, {
		"type": "Feature",
		"properties": {
			"altitude": "",
			"geometry": "Point",
			"campusId": "CRE",
			"title": "Cannon Shed",
			"locTypeId": 1,
			"locType": "building",
			"version": 10462,
			"bldgId": 736,
			"description": "",
			"addr1": "Water Street, Creswick",
			"addr2": "",
			"locationId": 217
		},
		"geometry": {
			"type": "Point",
			"coordinates": [143.899193, -37.421002]
		}
	}, {
		"type": "Feature",
		"properties": {
			"altitude": "",
			"geometry": "Point",
			"campusId": "CRE",
			"title": "Glass House (Small)",
			"locTypeId": 1,
			"locType": "building",
			"version": 10461,
			"bldgId": 735,
			"description": "",
			"addr1": "Water Street, Creswick",
			"addr2": "",
			"locationId": 216
		},
		"geometry": {
			"type": "Point",
			"coordinates": [143.899321, -37.421006]
		}
	}, {
		"type": "Feature",
		"properties": {
			"altitude": "",
			"geometry": "Point",
			"campusId": "CRE",
			"title": "Glass House (Large)",
			"locTypeId": 1,
			"locType": "building",
			"version": 10460,
			"bldgId": 734,
			"description": "",
			"addr1": "Water Street, Creswick",
			"addr2": "",
			"locationId": 215
		},
		"geometry": {
			"type": "Point",
			"coordinates": [143.899508, -37.421012]
		}
	}, {
		"type": "Feature",
		"properties": {
			"altitude": "",
			"geometry": "Point",
			"campusId": "CRE",
			"title": "Head House",
			"locTypeId": 1,
			"locType": "building",
			"version": 10459,
			"bldgId": 733,
			"description": "",
			"addr1": "Water Street, Creswick",
			"addr2": "",
			"locationId": 214
		},
		"geometry": {
			"type": "Point",
			"coordinates": [143.899417, -37.421115]
		}
	}, {
		"type": "Feature",
		"properties": {
			"altitude": "",
			"geometry": "Point",
			"campusId": "CRE",
			"title": "Lodge",
			"locTypeId": 1,
			"locType": "building",
			"version": 10458,
			"bldgId": 732,
			"description": "",
			"addr1": "Water Street, Creswick",
			"addr2": "",
			"locationId": 213
		},
		"geometry": {
			"type": "Point",
			"coordinates": [143.89979, -37.421276]
		}
	}, {
		"type": "Feature",
		"properties": {
			"altitude": "",
			"geometry": "Point",
			"campusId": "CRE",
			"title": "Semmens Hall",
			"locTypeId": 1,
			"locType": "building",
			"version": 10457,
			"bldgId": 731,
			"description": "",
			"addr1": "Water Street, Creswick",
			"addr2": "",
			"locationId": 212
		},
		"geometry": {
			"type": "Point",
			"coordinates": [143.899967, -37.421614]
		}
	}, {
		"type": "Feature",
		"properties": {
			"altitude": "",
			"geometry": "Point",
			"campusId": "CRE",
			"title": "Maintenance Workshop",
			"locTypeId": 1,
			"locType": "building",
			"version": 10456,
			"bldgId": 730,
			"description": "",
			"addr1": "Water Street, Creswick",
			"addr2": "",
			"locationId": 211
		},
		"geometry": {
			"type": "Point",
			"coordinates": [143.899595, -37.421542]
		}
	}, {
		"type": "Feature",
		"properties": {
			"altitude": "",
			"geometry": "Point",
			"campusId": "CRE",
			"title": "Garages",
			"locTypeId": 1,
			"locType": "building",
			"version": 10455,
			"bldgId": 729,
			"description": "",
			"addr1": "Water Street, Creswick",
			"addr2": "",
			"locationId": 210
		},
		"geometry": {
			"type": "Point",
			"coordinates": [143.899431, -37.42169]
		}
	}, {
		"type": "Feature",
		"properties": {
			"altitude": "",
			"geometry": "Point",
			"campusId": "CRE",
			"title": "Student Recreation Centre",
			"locTypeId": 1,
			"locType": "building",
			"version": 10454,
			"bldgId": 726,
			"description": "",
			"addr1": "Water Street, Creswick",
			"addr2": "",
			"locationId": 209
		},
		"geometry": {
			"type": "Point",
			"coordinates": [143.89946, -37.421812]
		}
	}, {
		"type": "Feature",
		"properties": {
			"altitude": "",
			"geometry": "Point",
			"campusId": "CRE",
			"title": "Gardener Shed",
			"locTypeId": 1,
			"locType": "building",
			"version": 10453,
			"bldgId": 725,
			"description": "",
			"addr1": "Water Street, Creswick",
			"addr2": "",
			"locationId": 208
		},
		"geometry": {
			"type": "Point",
			"coordinates": [143.899158, -37.421732]
		}
	}, {
		"type": "Feature",
		"properties": {
			"altitude": "",
			"geometry": "Point",
			"campusId": "CRE",
			"title": "Staff Amnities/Laundry",
			"locTypeId": 1,
			"locType": "building",
			"version": 10452,
			"bldgId": 724,
			"description": "",
			"addr1": "Water Street, Creswick",
			"addr2": "",
			"locationId": 207
		},
		"geometry": {
			"type": "Point",
			"coordinates": [143.899166, -37.421841]
		}
	}, {
		"type": "Feature",
		"properties": {
			"altitude": "",
			"geometry": "Point",
			"campusId": "CRE",
			"title": "Post Grad House",
			"locTypeId": 1,
			"locType": "building",
			"version": 10451,
			"bldgId": 723,
			"description": "",
			"addr1": "Water Street, Creswick",
			"addr2": "",
			"locationId": 206
		},
		"geometry": {
			"type": "Point",
			"coordinates": [143.899412, -37.422495]
		}
	}, {
		"type": "Feature",
		"properties": {
			"altitude": "",
			"geometry": "Point",
			"campusId": "CRE",
			"title": "Student Kitchen",
			"locTypeId": 1,
			"locType": "building",
			"version": 10450,
			"bldgId": 722,
			"description": "",
			"addr1": "Water Street, Creswick",
			"addr2": "",
			"locationId": 205
		},
		"geometry": {
			"type": "Point",
			"coordinates": [143.899548, -37.422421]
		}
	}, {
		"type": "Feature",
		"properties": {
			"altitude": "",
			"geometry": "Point",
			"campusId": "CRE",
			"title": "A V Gailbraith House",
			"locTypeId": 1,
			"locType": "building",
			"version": 10449,
			"bldgId": 721,
			"description": "",
			"addr1": "Water Street, Creswick",
			"addr2": "",
			"locationId": 204
		},
		"geometry": {
			"type": "Point",
			"coordinates": [143.899388, -37.422194]
		}
	}, {
		"type": "Feature",
		"properties": {
			"altitude": "",
			"geometry": "Point",
			"campusId": "CRE",
			"title": "Refer To Building No 719 Dining Room/Kit",
			"locTypeId": 1,
			"locType": "building",
			"version": 10448,
			"bldgId": 720,
			"description": "",
			"addr1": "Water Street, Creswick",
			"addr2": "",
			"locationId": 203
		},
		"geometry": {
			"type": "Point",
			"coordinates": [143.899128, -37.422154]
		}
	}, {
		"type": "Feature",
		"properties": {
			"altitude": "",
			"geometry": "Point",
			"campusId": "CRE",
			"title": "Library",
			"locTypeId": 1,
			"locType": "building",
			"version": 10447,
			"bldgId": 719,
			"description": "",
			"addr1": "Water Street, Creswick",
			"addr2": "",
			"locationId": 202
		},
		"geometry": {
			"type": "Point",
			"coordinates": [143.898896, -37.422283]
		}
	}, {
		"type": "Feature",
		"properties": {
			"altitude": "",
			"geometry": "Point",
			"campusId": "CRE",
			"title": "Refer To Building No 719 Computer Lab",
			"locTypeId": 1,
			"locType": "building",
			"version": 10446,
			"bldgId": 718,
			"description": "",
			"addr1": "Water Street, Creswick",
			"addr2": "",
			"locationId": 201
		},
		"geometry": {
			"type": "Point",
			"coordinates": [143.899041, -37.422472]
		}
	}, {
		"type": "Feature",
		"properties": {
			"altitude": "",
			"geometry": "Point",
			"campusId": "CRE",
			"title": "Glass House Bio Tech",
			"locTypeId": 1,
			"locType": "building",
			"version": 10445,
			"bldgId": 717,
			"description": "",
			"addr1": "Water Street, Creswick",
			"addr2": "",
			"locationId": 200
		},
		"geometry": {
			"type": "Point",
			"coordinates": [143.900442, -37.423396]
		}
	}, {
		"type": "Feature",
		"properties": {
			"altitude": "",
			"geometry": "Point",
			"campusId": "CRE",
			"title": "Stage 1",
			"locTypeId": 1,
			"locType": "building",
			"version": 10444,
			"bldgId": 716,
			"description": "",
			"addr1": "Water Street, Creswick",
			"addr2": "",
			"locationId": 199
		},
		"geometry": {
			"type": "Point",
			"coordinates": [143.900159, -37.423431]
		}
	}, {
		"type": "Feature",
		"properties": {
			"altitude": "",
			"geometry": "Point",
			"campusId": "CRE",
			"title": "Science Block-Labs/Lecture",
			"locTypeId": 1,
			"locType": "building",
			"version": 10443,
			"bldgId": 715,
			"description": "",
			"addr1": "Water Street, Creswick",
			"addr2": "",
			"locationId": 198
		},
		"geometry": {
			"type": "Point",
			"coordinates": [143.899822, -37.422962]
		}
	}, {
		"type": "Feature",
		"properties": {
			"altitude": "",
			"geometry": "Point",
			"campusId": "CRE",
			"title": "Unimelb Office/Labs",
			"locTypeId": 1,
			"locType": "building",
			"version": 10442,
			"bldgId": 714,
			"description": "",
			"addr1": "Water Street, Creswick",
			"addr2": "",
			"locationId": 197
		},
		"geometry": {
			"type": "Point",
			"coordinates": [143.899736, -37.423339]
		}
	}, {
		"type": "Feature",
		"properties": {
			"altitude": "",
			"geometry": "Point",
			"campusId": "CRE",
			"title": "Seminar Centre",
			"locTypeId": 1,
			"locType": "building",
			"version": 10441,
			"bldgId": 713,
			"description": "",
			"addr1": "Water Street, Creswick",
			"addr2": "",
			"locationId": 196
		},
		"geometry": {
			"type": "Point",
			"coordinates": [143.898941, -37.423454]
		}
	}, {
		"type": "Feature",
		"properties": {
			"altitude": "",
			"geometry": "Point",
			"campusId": "CRE",
			"title": "Storage - Wood Tech",
			"locTypeId": 1,
			"locType": "building",
			"version": 10440,
			"bldgId": 712,
			"description": "",
			"addr1": "Water Street, Creswick",
			"addr2": "",
			"locationId": 195
		},
		"geometry": {
			"type": "Point",
			"coordinates": [143.898544, -37.423442]
		}
	}, {
		"type": "Feature",
		"properties": {
			"altitude": "",
			"geometry": "Point",
			"campusId": "CRE",
			"title": "Tremearne House",
			"locTypeId": 1,
			"locType": "building",
			"version": 10439,
			"bldgId": 710,
			"description": "",
			"addr1": "Water Street, Creswick",
			"addr2": "",
			"locationId": 194
		},
		"geometry": {
			"type": "Point",
			"coordinates": [143.898379, -37.423658]
		}
	}, {
		"type": "Feature",
		"properties": {
			"altitude": "",
			"geometry": "Point",
			"campusId": "STH",
			"title": 889,
			"locTypeId": 1,
			"locType": "building",
			"version": 10534,
			"bldgId": 889,
			"description": "",
			"addr1": "234 St Kilda Rd, Southbank",
			"addr2": "",
			"locationId": 628
		},
		"geometry": {
			"type": "Point",
			"coordinates": [144.9695, -37.824]
		}
	}, {
		"type": "Feature",
		"properties": {
			"altitude": "",
			"geometry": "Point",
			"campusId": "STH",
			"title": "Performing Arts - Production",
			"locTypeId": 1,
			"locType": "building",
			"version": 10533,
			"bldgId": 873,
			"description": "",
			"addr1": "234 St Kilda Rd, Southbank",
			"addr2": "",
			"locationId": 627
		},
		"geometry": {
			"type": "Point",
			"coordinates": [144.9688, -37.825]
		}
	}, {
		"type": "Feature",
		"properties": {
			"altitude": "",
			"geometry": "Point",
			"campusId": "STH",
			"title": "Shed",
			"locTypeId": 1,
			"locType": "building",
			"version": 10532,
			"bldgId": 869,
			"description": "",
			"addr1": "234 St Kilda Rd, Southbank",
			"addr2": "",
			"locationId": 626
		},
		"geometry": {
			"type": "Point",
			"coordinates": [144.9691, -37.8241]
		}
	}, {
		"type": "Feature",
		"properties": {
			"altitude": "",
			"geometry": "Point",
			"campusId": "STH",
			"title": "Performing Arts",
			"locTypeId": 1,
			"locType": "building",
			"version": 10489,
			"bldgId": 879,
			"description": "",
			"addr1": "234 St Kilda Rd, Southbank",
			"addr2": "",
			"locationId": 244
		},
		"geometry": {
			"type": "Point",
			"coordinates": [144.967871, -37.824648]
		}
	}, {
		"type": "Feature",
		"properties": {
			"altitude": "",
			"geometry": "Point",
			"campusId": "STH",
			"title": "Art Admin, Production Admin And Design",
			"locTypeId": 1,
			"locType": "building",
			"version": 10488,
			"bldgId": 878,
			"description": "",
			"addr1": "234 St Kilda Rd, Southbank",
			"addr2": "",
			"locationId": 243
		},
		"geometry": {
			"type": "Point",
			"coordinates": [144.968101, -37.82501]
		}
	}, {
		"type": "Feature",
		"properties": {
			"altitude": "",
			"geometry": "Point",
			"campusId": "STH",
			"title": "Art Studios, Screen Printing And Arts Auditorium",
			"locTypeId": 1,
			"locType": "building",
			"version": 10487,
			"bldgId": 877,
			"description": "",
			"addr1": "234 St Kilda Rd, Southbank",
			"addr2": "",
			"locationId": 242
		},
		"geometry": {
			"type": "Point",
			"coordinates": [144.967414, -37.82489]
		}
	}, {
		"type": "Feature",
		"properties": {
			"altitude": "",
			"geometry": "Point",
			"campusId": "STH",
			"title": "Sculpture",
			"locTypeId": 1,
			"locType": "building",
			"version": 10486,
			"bldgId": 876,
			"description": "",
			"addr1": "234 St Kilda Rd, Southbank",
			"addr2": "",
			"locationId": 241
		},
		"geometry": {
			"type": "Point",
			"coordinates": [144.9671, -37.82527]
		}
	}, {
		"type": "Feature",
		"properties": {
			"altitude": "",
			"geometry": "Point",
			"campusId": "STH",
			"title": "Stb - Printing",
			"locTypeId": 1,
			"locType": "building",
			"version": 10485,
			"bldgId": 875,
			"description": "",
			"addr1": "234 St Kilda Rd, Southbank",
			"addr2": "",
			"locationId": 240
		},
		"geometry": {
			"type": "Point",
			"coordinates": [144.967451, -37.825276]
		}
	}, {
		"type": "Feature",
		"properties": {
			"altitude": "",
			"geometry": "Point",
			"campusId": "STH",
			"title": "Workshop, Painting And Photography",
			"locTypeId": 1,
			"locType": "building",
			"version": 10484,
			"bldgId": 874,
			"description": "",
			"addr1": "Grant Sturt Dodds Sts",
			"addr2": "",
			"locationId": 239
		},
		"geometry": {
			"type": "Point",
			"coordinates": [144.967511, -37.825612]
		}
	}, {
		"type": "Feature",
		"properties": {
			"altitude": "",
			"geometry": "Point",
			"campusId": "STH",
			"title": "Stb - Grant St. Theatre",
			"locTypeId": 1,
			"locType": "building",
			"version": 10483,
			"bldgId": 872,
			"description": "",
			"addr1": "234 St Kilda Rd, Southbank",
			"addr2": "",
			"locationId": 238
		},
		"geometry": {
			"type": "Point",
			"coordinates": [144.969143, -37.82525]
		}
	},